{
  "$comment": "Compact projection of the ÖBB-Infrastruktur GeoNetz dataset onto the seven fields the station-directory enrichment pipeline consumes. Re-generated by scripts/extract_oebb_geonetz_stops.py.",
  "source_url": "https://data.oebb.at/dam/jcr:d4780bb2-390e-4288-b540-dff1ae1b27ae/GeoNetz_12-2024.zip",
  "license": "Datenquelle: ÖBB-Infrastruktur AG (data.oebb.at, mobilitaetsdaten.gv.at) — CC BY 4.0",
  "extracted_at": "2026-05-21",
  "stops": [
    {
      "bsts_id": "5517155",
      "name": "Abfaltersbach",
      "lat": 46.758131,
      "lon": 12.529545,
      "eva_nr": "8100204",
      "ifopt_id": "at:47:3877",
      "address": "9913 Abfaltersbach, Abfaltersbach 71"
    },
    {
      "bsts_id": "17",
      "name": "Absdorf-Hippersdorf",
      "lat": 48.401812,
      "lon": 15.985577,
      "eva_nr": "8100202",
      "ifopt_id": "at:43:3004",
      "address": "3462 Absdorf/Hippersdorf, Bahnhofstraße 27"
    },
    {
      "bsts_id": "11",
      "name": "Achau",
      "lat": 48.082741,
      "lon": 16.376729,
      "eva_nr": "8100205",
      "ifopt_id": "at:43:3008",
      "address": "2481 Achau, Bahnstraße"
    },
    {
      "bsts_id": "499",
      "name": "Achenlohe",
      "lat": 48.045489,
      "lon": 13.197964,
      "eva_nr": "8100602",
      "ifopt_id": "at:44:49320",
      "address": "5222 Munderfing, Achenlohe 22"
    },
    {
      "bsts_id": "1787",
      "name": "Achleitnersiedlung",
      "lat": 48.321561,
      "lon": 14.20561,
      "eva_nr": "8101955",
      "ifopt_id": "at:44:44009",
      "address": "4048 Puchenau,"
    },
    {
      "bsts_id": "12",
      "name": "Admont",
      "lat": 47.573325,
      "lon": 14.468164,
      "eva_nr": "8100161",
      "ifopt_id": "at:46:6793",
      "address": "8911 Admont, Bahnhofstraße 109"
    },
    {
      "bsts_id": "688",
      "name": "Aich-Assach",
      "lat": 47.420143,
      "lon": 13.821803,
      "eva_nr": "8100597",
      "ifopt_id": "at:46:7445",
      "address": "8966  Aich-Assach, Aich 57"
    },
    {
      "bsts_id": "24",
      "name": "Aigen-Schlägl",
      "lat": 48.642419,
      "lon": 13.97542,
      "eva_nr": "8100208",
      "ifopt_id": "at:44:49844",
      "address": "4160 Aigen-Schlägl, Bahnhofstraße 9"
    },
    {
      "bsts_id": "1652",
      "name": "Aisthofen",
      "lat": 48.256367,
      "lon": 14.590365,
      "eva_nr": "8100609",
      "ifopt_id": "at:44:44550",
      "address": "4320 Aisthofen,"
    },
    {
      "bsts_id": "41",
      "name": "Allentsteig",
      "lat": 48.715779,
      "lon": 15.32968,
      "eva_nr": "8100210",
      "ifopt_id": "at:43:7164",
      "address": "3804 Allentsteig, Thaua 57"
    },
    {
      "bsts_id": "1033",
      "name": "Allerheiligen-Mürzhofen",
      "lat": 47.482241,
      "lon": 15.403349,
      "eva_nr": "8100613",
      "ifopt_id": "at:46:7421",
      "address": "8643 Allerheiligen/Mürztal,"
    },
    {
      "bsts_id": "938",
      "name": "Allerheiligenhöfe",
      "lat": 47.269047,
      "lon": 11.35298,
      "eva_nr": "8100548",
      "ifopt_id": "at:47:2222",
      "address": "6020 Allerheiligenhöfe,"
    },
    {
      "bsts_id": "1253",
      "name": "Alling-Tobisegg",
      "lat": 46.882477,
      "lon": 15.372735,
      "ifopt_id": "at:46:1286"
    },
    {
      "bsts_id": "676",
      "name": "Altach",
      "lat": 47.351999,
      "lon": 9.661094,
      "eva_nr": "8100630",
      "ifopt_id": "at:48:394",
      "address": "6844 Altach,"
    },
    {
      "bsts_id": "1716",
      "name": "Altenhof",
      "lat": 48.544226,
      "lon": 15.686125,
      "eva_nr": "8101863",
      "ifopt_id": "at:43:3005",
      "address": "3564 Plank/Kamp,"
    },
    {
      "bsts_id": "1810",
      "name": "Altenmarkt im Pongau",
      "lat": 47.382059,
      "lon": 13.429216,
      "eva_nr": "8100139",
      "ifopt_id": "at:45:52183",
      "address": "5541 Altenmarkt/Pongau, Untere Marktstraße 41"
    },
    {
      "bsts_id": "455",
      "name": "Altenstadt",
      "lat": 47.256491,
      "lon": 9.615161,
      "eva_nr": "8100635",
      "ifopt_id": "at:48:567",
      "address": "6800 Altenstadt, Reichsstraße 46"
    },
    {
      "bsts_id": "376",
      "name": "Altmünster am Traunsee",
      "lat": 47.891378,
      "lon": 13.75841,
      "eva_nr": "8100152",
      "ifopt_id": "at:44:46011",
      "address": "4813 Altmünster, Bahnhofstraße 64"
    },
    {
      "bsts_id": "55",
      "name": "Amstetten",
      "lat": 48.121799,
      "lon": 14.878363,
      "eva_nr": "8100012",
      "ifopt_id": "at:43:7234",
      "address": "3300 Amstetten, Graben 60"
    },
    {
      "bsts_id": "13",
      "name": "Andorf",
      "lat": 48.369452,
      "lon": 13.566055,
      "eva_nr": "8100211",
      "ifopt_id": "at:44:48800",
      "address": "4770 Andorf, Bahnhofstraße 1"
    },
    {
      "bsts_id": "15",
      "name": "Angern",
      "lat": 48.384191,
      "lon": 16.826052,
      "eva_nr": "8100619",
      "ifopt_id": "at:43:3046",
      "address": "2261 Angern, Bahnstraße 28"
    },
    {
      "bsts_id": "1932",
      "name": "Annenheim",
      "lat": 46.658544,
      "lon": 13.900688,
      "eva_nr": "8100213",
      "ifopt_id": "at:42:3813",
      "address": "9520 Annenheim,"
    },
    {
      "bsts_id": "2192",
      "name": "Ansfelden",
      "lat": 48.209301,
      "lon": 14.2611,
      "eva_nr": "8100626",
      "ifopt_id": "at:44:41602",
      "address": "4053 Ansfelden,"
    },
    {
      "bsts_id": "66",
      "name": "Antiesenhofen",
      "lat": 48.347284,
      "lon": 13.40188,
      "eva_nr": "8100215",
      "ifopt_id": "at:44:48930",
      "address": "4980 Antiesenhofen, Rieder Straße 13"
    },
    {
      "bsts_id": "80",
      "name": "Arbing",
      "lat": 48.227117,
      "lon": 14.700823,
      "eva_nr": "8100622",
      "ifopt_id": "at:44:44850",
      "address": "4341 Arbing,"
    },
    {
      "bsts_id": "79",
      "name": "Ardning",
      "lat": 47.590396,
      "lon": 14.359071,
      "eva_nr": "8100623",
      "ifopt_id": "at:46:7449",
      "address": "8904 Ardning, Bahnhofstraße 21"
    },
    {
      "bsts_id": "296",
      "name": "Arnoldstein",
      "lat": 46.551327,
      "lon": 13.707368,
      "eva_nr": "8100056",
      "ifopt_id": "at:42:3662",
      "address": "9601 Arnoldstein, Bahnhofstraße 4"
    },
    {
      "bsts_id": "1265643",
      "name": "Aschbach Haltestelle",
      "lat": 48.0696,
      "lon": 14.756206,
      "eva_nr": "8100600",
      "ifopt_id": "at:43:7236",
      "address": "3361 Aschbach,"
    },
    {
      "bsts_id": "75",
      "name": "Aspang",
      "lat": 47.562419,
      "lon": 16.099391,
      "eva_nr": "8100188",
      "ifopt_id": "at:43:7041",
      "address": "2870 Aspang, Bahnhofplatz 1"
    },
    {
      "bsts_id": "1397220",
      "name": "Asten-Fisching",
      "lat": 48.227325,
      "lon": 14.427271,
      "eva_nr": "8102046",
      "ifopt_id": "at:44:41900",
      "address": "4481 Asten,"
    },
    {
      "bsts_id": "91",
      "name": "Attnang-Puchheim",
      "lat": 48.012661,
      "lon": 13.721178,
      "eva_nr": "8100017",
      "ifopt_id": "at:44:47200",
      "address": "4800 Attnang/Puchheim, Bahnhofstraße 20"
    },
    {
      "bsts_id": "1387",
      "name": "Atzenbrugg",
      "lat": 48.297487,
      "lon": 15.917482,
      "eva_nr": "8100637",
      "ifopt_id": "at:43:3064",
      "address": "3452 Atzenbrugg,"
    },
    {
      "bsts_id": "34",
      "name": "Aurachkirchen",
      "lat": 47.968228,
      "lon": 13.745627,
      "eva_nr": "8100639",
      "ifopt_id": "at:44:46790",
      "address": "4812 Aurachkirchen, Aurachkirchen 22"
    },
    {
      "bsts_id": "1826",
      "name": "Aurolzmünster",
      "lat": 48.249093,
      "lon": 13.458031,
      "eva_nr": "8100638",
      "ifopt_id": "at:44:48101",
      "address": "4971 Aurolzmünster, Schlossstraße 13"
    },
    {
      "bsts_id": "99",
      "name": "Ausschlag-Zöbern",
      "lat": 47.533075,
      "lon": 16.082993,
      "eva_nr": "8100642",
      "ifopt_id": "at:43:7042",
      "address": "2870 Ausschlag/Zöbern, Zöbern 1"
    },
    {
      "bsts_id": "97",
      "name": "Bad Aussee",
      "lat": 47.599283,
      "lon": 13.776324,
      "eva_nr": "8100164",
      "ifopt_id": "at:46:7063",
      "address": "8990  Bad Aussee, Bahnhofstraße 61"
    },
    {
      "bsts_id": "1975",
      "name": "Bad Blumau",
      "lat": 47.123074,
      "lon": 16.056807,
      "eva_nr": "8100663",
      "ifopt_id": "at:46:2735",
      "address": "8271 Leitersdorf,"
    },
    {
      "bsts_id": "143",
      "name": "Bad Deutsch Altenburg",
      "lat": 48.133195,
      "lon": 16.910511,
      "eva_nr": "8100538",
      "ifopt_id": "at:43:3079",
      "address": "2405 Bad Deutsch Altenburg,"
    },
    {
      "bsts_id": "359",
      "name": "Bad Erlach",
      "lat": 47.732286,
      "lon": 16.212245,
      "eva_nr": "8100192",
      "ifopt_id": "at:43:7032",
      "address": "2822 Erlach, Bahngasse 2"
    },
    {
      "bsts_id": "442",
      "name": "Bad Fischau",
      "lat": 47.831202,
      "lon": 16.171251,
      "eva_nr": "8100655",
      "ifopt_id": "at:43:7092",
      "address": "2721 Bad Fischau/Brunn, Bahngasse"
    },
    {
      "bsts_id": "440",
      "name": "Bad Fischau-Brunn",
      "lat": 47.826903,
      "lon": 16.1733,
      "eva_nr": "8100653",
      "ifopt_id": "at:43:7091",
      "address": "2721 Bad Fischau/Brunn, Wiener Neustädterstraße 36"
    },
    {
      "bsts_id": "121",
      "name": "Bad Gastein",
      "lat": 47.111823,
      "lon": 13.132304,
      "eva_nr": "8100095",
      "ifopt_id": "at:45:52204",
      "address": "5640 Badgastein, Bahnhofplatz 10"
    },
    {
      "bsts_id": "666",
      "name": "Bad Goisern",
      "lat": 47.639765,
      "lon": 13.61327,
      "eva_nr": "8100160",
      "ifopt_id": "at:44:46571",
      "address": "4822  Bad Goisern, Bahnhofstraße 21"
    },
    {
      "bsts_id": "826",
      "name": "Bad Hofgastein",
      "lat": 47.195187,
      "lon": 13.100707,
      "eva_nr": "8100097",
      "ifopt_id": "at:45:52201",
      "address": "5630  Bad Hofgastein, Breitenberg 27"
    },
    {
      "bsts_id": "940",
      "name": "Bad Ischl",
      "lat": 47.712253,
      "lon": 13.627274,
      "eva_nr": "8100157",
      "ifopt_id": "at:44:46500",
      "address": "4820 Bad Ischl,"
    },
    {
      "bsts_id": "127",
      "name": "Bad Mitterndorf",
      "lat": 47.550525,
      "lon": 13.945224,
      "eva_nr": "8100165",
      "ifopt_id": "at:46:7316",
      "address": "8983  Bad Mitterndorf, Thörl 23"
    },
    {
      "bsts_id": "128",
      "name": "Bad Mitterndorf-Heilbrunn",
      "lat": 47.551217,
      "lon": 13.925394,
      "eva_nr": "8100672",
      "ifopt_id": "at:46:7512",
      "address": "8983  Bad Mitterndorf, Bad Mitterndorf 66"
    },
    {
      "bsts_id": "1805",
      "name": "Bad Radkersburg",
      "lat": 46.699465,
      "lon": 15.993062,
      "eva_nr": "8100677",
      "ifopt_id": "at:46:1891",
      "address": "8490 Radkersburg, Bahnhofstraße 30"
    },
    {
      "bsts_id": "1825",
      "name": "Bad Ried",
      "lat": 48.212629,
      "lon": 13.477671,
      "eva_nr": "8100678",
      "ifopt_id": "at:44:48050",
      "address": "4910 Ried/Innkreis, Volksfeststraße 18"
    },
    {
      "bsts_id": "1939",
      "name": "Bad Sauerbrunn",
      "lat": 47.773909,
      "lon": 16.324532,
      "eva_nr": "8100481",
      "ifopt_id": "at:41:3087",
      "address": "7202 Sauerbrunn, Bahnhofplatz 1"
    },
    {
      "bsts_id": "2365",
      "name": "Bad Schallerbach-Wallern",
      "lat": 48.228919,
      "lon": 13.922114,
      "eva_nr": "8100021",
      "ifopt_id": "at:44:47750",
      "address": "4701  Bad Schallerbach, Bahnhofallee 1"
    },
    {
      "bsts_id": "2175",
      "name": "Bad Schwanberg",
      "lat": 46.76601,
      "lon": 15.239537,
      "eva_nr": "8101628",
      "ifopt_id": "at:46:1288"
    },
    {
      "bsts_id": "843",
      "name": "Bad Vigaun",
      "lat": 47.663916,
      "lon": 13.124058,
      "eva_nr": "8101718",
      "ifopt_id": "at:45:56199",
      "address": "5424  Bad Vigaun, Langwies 22"
    },
    {
      "bsts_id": "253",
      "name": "Bad Vöslau",
      "lat": 47.969278,
      "lon": 16.223538,
      "eva_nr": "8100708",
      "ifopt_id": "at:43:3090",
      "address": "2540  Bad Vöslau, Castelligasse 2"
    },
    {
      "bsts_id": "1973",
      "name": "Bad Waltersdorf",
      "lat": 47.170349,
      "lon": 16.013628,
      "eva_nr": "8100455",
      "ifopt_id": "at:46:1774",
      "address": "8271 Waltersdorf, Bad Waltersdorf 73"
    },
    {
      "bsts_id": "149",
      "name": "Baden",
      "lat": 48.004117,
      "lon": 16.24265,
      "eva_nr": "8100025",
      "ifopt_id": "at:43:3101",
      "address": "2500 Baden, Conrad-von-Hötzendorfplatz 1"
    },
    {
      "bsts_id": "130",
      "name": "Baumgartenberg",
      "lat": 48.208904,
      "lon": 14.747286,
      "eva_nr": "8100656",
      "ifopt_id": "at:44:44960",
      "address": "4342 Baumgartenberg, Baumgartenberg 36"
    },
    {
      "bsts_id": "273",
      "name": "Berg im Drautal",
      "lat": 46.742788,
      "lon": 13.127149,
      "eva_nr": "8100657",
      "ifopt_id": "at:42:3867",
      "address": "9771 Berg/Drautal, Berg 129"
    },
    {
      "bsts_id": "1644",
      "name": "Bergern",
      "lat": 48.101028,
      "lon": 13.630807,
      "eva_nr": "8100681",
      "ifopt_id": "at:44:47130",
      "address": "4901 Ottnang am Hausruck, Gewerbestraße 12"
    },
    {
      "bsts_id": "2214",
      "name": "Berndorf Fabrik",
      "lat": 47.940341,
      "lon": 16.133936,
      "eva_nr": "8100650",
      "ifopt_id": "at:43:3155",
      "address": "2560  Berndorf, Augraben 2"
    },
    {
      "bsts_id": "2215",
      "name": "Berndorf Stadt",
      "lat": 47.944768,
      "lon": 16.108729,
      "eva_nr": "8100652",
      "ifopt_id": "at:43:3160",
      "address": "2560 Berndorf, J.F.Kennedy Platz 1"
    },
    {
      "bsts_id": "145",
      "name": "Bernhardsthal",
      "lat": 48.68756,
      "lon": 16.878994,
      "eva_nr": "8100457",
      "ifopt_id": "at:43:3162",
      "address": "2275 Bernhardstal, Bahnhof 258"
    },
    {
      "bsts_id": "1262120",
      "name": "Bichlbach-Almkopfbahn",
      "lat": 47.427694,
      "lon": 10.776598,
      "eva_nr": "8101972",
      "ifopt_id": "at:47:1833",
      "address": "6621 Bichlbach,"
    },
    {
      "bsts_id": "139",
      "name": "Bichlbach-Berwang",
      "lat": 47.421156,
      "lon": 10.793675,
      "eva_nr": "8100114",
      "ifopt_id": "at:47:2247",
      "address": "6621 Bichlbach,"
    },
    {
      "bsts_id": "170",
      "name": "Bierbaum",
      "lat": 47.09789,
      "lon": 16.074078,
      "eva_nr": "8100178",
      "ifopt_id": "at:46:1772",
      "address": "8283 Bierbaum, Bierbaum 45"
    },
    {
      "bsts_id": "960",
      "name": "Bisamberg",
      "lat": 48.316326,
      "lon": 16.347305,
      "eva_nr": "8100689",
      "ifopt_id": "at:43:3170",
      "address": "2102 Bisamberg, An den Mühlen"
    },
    {
      "bsts_id": "199",
      "name": "Bischofshofen",
      "lat": 47.417458,
      "lon": 13.219644,
      "eva_nr": "8100042",
      "ifopt_id": "at:45:52099",
      "address": "5500 Bischofshofen, Bahnhofplatz 16"
    },
    {
      "bsts_id": "173",
      "name": "Bleiburg",
      "lat": 46.574371,
      "lon": 14.786666,
      "eva_nr": "8100393",
      "ifopt_id": "at:42:3825",
      "address": "9150 Bleiburg, Ebersdorf 17"
    },
    {
      "bsts_id": "388",
      "name": "Bleiburg Stadt",
      "lat": 46.590138,
      "lon": 14.794149,
      "eva_nr": "8100668",
      "ifopt_id": "at:42:3826",
      "address": "9150 Bleiburg, Bründlweg 4"
    },
    {
      "bsts_id": "177",
      "name": "Blindenmarkt",
      "lat": 48.125196,
      "lon": 14.980402,
      "eva_nr": "8100669",
      "ifopt_id": "at:43:7233",
      "address": "3372 Blindenmarkt,"
    },
    {
      "bsts_id": "116",
      "name": "Bludenz",
      "lat": 47.155118,
      "lon": 9.814775,
      "eva_nr": "8100067",
      "ifopt_id": "at:48:130",
      "address": "6700 Bludenz, Bahnhofsplatz 3"
    },
    {
      "bsts_id": "231",
      "name": "Braunau am Inn",
      "lat": 48.258985,
      "lon": 13.047977,
      "eva_nr": "8100365",
      "ifopt_id": "at:44:49000",
      "address": "5280 Braunau/Inn, Bahnhofstraße 19"
    },
    {
      "bsts_id": "154",
      "name": "Bregenz",
      "lat": 47.50237,
      "lon": 9.739773,
      "eva_nr": "8100090",
      "ifopt_id": "at:48:452",
      "address": "6900 Bregenz,"
    },
    {
      "bsts_id": "155",
      "name": "Bregenz Hafen",
      "lat": 47.506459,
      "lon": 9.748773,
      "eva_nr": "8101950",
      "ifopt_id": "at:48:466",
      "address": "6900 Bregenz,"
    },
    {
      "bsts_id": "224",
      "name": "Breitenbrunn",
      "lat": 47.941156,
      "lon": 16.746348,
      "eva_nr": "8100397",
      "ifopt_id": "at:41:3186",
      "address": "7091 Breitenbrunn, Bahnstraße"
    },
    {
      "bsts_id": "2010",
      "name": "Breiteneich bei Horn",
      "lat": 48.671788,
      "lon": 15.687985,
      "eva_nr": "8100682",
      "ifopt_id": "at:43:3189",
      "address": "3580 Horn, Breiteneich -"
    },
    {
      "bsts_id": "214",
      "name": "Breitenschützing",
      "lat": 48.078929,
      "lon": 13.800675,
      "eva_nr": "8100695",
      "ifopt_id": "at:44:47151",
      "address": "4691 Schlatt, Breitenschützing 22"
    },
    {
      "bsts_id": "1996",
      "name": "Breitensee NÖ",
      "lat": 48.254837,
      "lon": 16.878662,
      "eva_nr": "8100693",
      "ifopt_id": "at:43:3204",
      "address": "2294 Breitensee,"
    },
    {
      "bsts_id": "248",
      "name": "Breitenstein",
      "lat": 47.660236,
      "lon": 15.820738,
      "eva_nr": "8100692",
      "ifopt_id": "at:43:8767",
      "address": "2673 Breitenstein, Hauptstraße 28"
    },
    {
      "bsts_id": "680",
      "name": "Breitenwaida",
      "lat": 48.515387,
      "lon": 16.074451,
      "eva_nr": "8100710",
      "ifopt_id": "at:43:3205",
      "address": "2014 Breitenwaida,"
    },
    {
      "bsts_id": "1049",
      "name": "Brixen im Thale",
      "lat": 47.449199,
      "lon": 12.26059,
      "eva_nr": "8100366",
      "ifopt_id": "at:47:1164",
      "address": "6364 Brixen im Thale, Feuringweg 1"
    },
    {
      "bsts_id": "217",
      "name": "Brixlegg",
      "lat": 47.434972,
      "lon": 11.880932,
      "eva_nr": "8100101",
      "ifopt_id": "at:47:1174",
      "address": "6230 Brixlegg, Marktstraße 2"
    },
    {
      "bsts_id": "172",
      "name": "Bruck a.d.Leitha",
      "lat": 48.019032,
      "lon": 16.780933,
      "eva_nr": "8100198",
      "ifopt_id": "at:43:3209",
      "address": "2460 Bruck/Leitha, Bahnhofplatz 1"
    },
    {
      "bsts_id": "188",
      "name": "Bruck a.d.Mur",
      "lat": 47.413817,
      "lon": 15.278876,
      "eva_nr": "8100032",
      "ifopt_id": "at:46:2065",
      "address": "8600 Bruck/Mur, Bahnhofstraße 22"
    },
    {
      "bsts_id": "215",
      "name": "Bruck-Fusch",
      "lat": 47.284811,
      "lon": 12.828416,
      "eva_nr": "8100047",
      "ifopt_id": "at:45:54179",
      "address": "5671 Bruck/Fusch, Bahnhofstrasse 12"
    },
    {
      "bsts_id": "360",
      "name": "Brunn a.d.Pitten",
      "lat": 47.722541,
      "lon": 16.188311,
      "eva_nr": "8100705",
      "ifopt_id": "at:43:7033",
      "address": "2822 Brunn/Pitten, Bahnhof 1"
    },
    {
      "bsts_id": "441",
      "name": "Brunn an der Schneebergbahn",
      "lat": 47.825686,
      "lon": 16.157763,
      "eva_nr": "8100706",
      "ifopt_id": "at:43:8022",
      "address": "2721 Brunn/Schneeberg, Brunner Hauptstraße"
    },
    {
      "bsts_id": "252",
      "name": "Brunn-Maria Enzersdorf",
      "lat": 48.105506,
      "lon": 16.288047,
      "eva_nr": "8100698",
      "ifopt_id": "at:43:3255",
      "address": "2345 Brunn/Gebirge, Bahngasse"
    },
    {
      "bsts_id": "555",
      "name": "Buchberg",
      "lat": 48.576068,
      "lon": 15.658833,
      "eva_nr": "8100700",
      "ifopt_id": "at:43:3260",
      "address": "3571 Buchberg am Kamp,"
    },
    {
      "bsts_id": "131",
      "name": "Bärnbach",
      "lat": 47.055721,
      "lon": 15.129784,
      "ifopt_id": "at:46:461"
    },
    {
      "bsts_id": "235",
      "name": "Böckstein",
      "lat": 47.080749,
      "lon": 13.130635,
      "eva_nr": "8100094",
      "ifopt_id": "at:45:52205",
      "address": "5645 Böckstein, Bundesstraße 126"
    },
    {
      "bsts_id": "163",
      "name": "Böheimkirchen",
      "lat": 48.200058,
      "lon": 15.754161,
      "eva_nr": "8100661",
      "ifopt_id": "at:43:3264",
      "address": "3071 Böheimkirchen,"
    },
    {
      "bsts_id": "1889",
      "name": "Böhlerwerk a.d.Ybbs",
      "lat": 47.983192,
      "lon": 14.754092,
      "eva_nr": "8100713",
      "ifopt_id": "at:43:7899",
      "address": "3333 Böhlerwerk, Unterzellerstraße 146"
    },
    {
      "bsts_id": "415",
      "name": "Dechantskirchen",
      "lat": 47.418624,
      "lon": 16.021935,
      "eva_nr": "8100722",
      "ifopt_id": "at:46:7542",
      "address": "8241 Dechantskirchen, Dechantskirchen 19"
    },
    {
      "bsts_id": "272",
      "name": "Dellach im Drautal",
      "lat": 46.735946,
      "lon": 13.075524,
      "eva_nr": "8100145",
      "ifopt_id": "at:42:3868",
      "address": "9772 Dellach/Drau, Dellach 39"
    },
    {
      "bsts_id": "2447",
      "name": "Deutsch Wagram",
      "lat": 48.302927,
      "lon": 16.564668,
      "eva_nr": "8100721",
      "ifopt_id": "at:43:3279",
      "address": "2232  Deutsch Wagram, Bahnhofstraße 78"
    },
    {
      "bsts_id": "278",
      "name": "Deutschkreutz",
      "lat": 47.603795,
      "lon": 16.62066,
      "eva_nr": "8100719",
      "ifopt_id": "at:41:3294",
      "address": "7301 Deutschkreuz, Bahngasse"
    },
    {
      "bsts_id": "281",
      "name": "Deutschlandsberg Stadt",
      "lat": 46.818973,
      "lon": 15.219299,
      "eva_nr": "8100718",
      "ifopt_id": "at:46:1497"
    },
    {
      "bsts_id": "158",
      "name": "Dietmannsdorf",
      "lat": 46.744421,
      "lon": 15.311689,
      "ifopt_id": "at:46:1290"
    },
    {
      "bsts_id": "69",
      "name": "Dietrichshofen",
      "lat": 48.370176,
      "lon": 13.422204,
      "eva_nr": "8100732",
      "ifopt_id": "at:44:48920",
      "address": "4774 St. Marienkirchen bei Schärding,"
    },
    {
      "bsts_id": "1778",
      "name": "Donnerskirchen",
      "lat": 47.888467,
      "lon": 16.66042,
      "eva_nr": "8100219",
      "ifopt_id": "at:41:3298",
      "address": "7082 Donnerskirchen, Bahnstraße"
    },
    {
      "bsts_id": "384",
      "name": "Dorf a.d.Enns",
      "lat": 48.091786,
      "lon": 14.473156,
      "eva_nr": "8100716",
      "ifopt_id": "at:43:8242",
      "address": "4431 Dorf/Enns,"
    },
    {
      "bsts_id": "275",
      "name": "Dorfgastein",
      "lat": 47.238572,
      "lon": 13.103341,
      "eva_nr": "8100098",
      "ifopt_id": "at:45:52199",
      "address": "5630 Dorfgastein, Bahnhofstraße 10"
    },
    {
      "bsts_id": "561",
      "name": "Dornach",
      "lat": 48.191784,
      "lon": 14.820275,
      "eva_nr": "8100727",
      "ifopt_id": "at:44:44870",
      "address": "4351 Saxen,"
    },
    {
      "bsts_id": "285",
      "name": "Dornbirn",
      "lat": 47.417503,
      "lon": 9.738861,
      "eva_nr": "8100122",
      "ifopt_id": "at:48:585",
      "address": "6850 Dornbirn,"
    },
    {
      "bsts_id": "887",
      "name": "Dornbirn-Schoren",
      "lat": 47.413421,
      "lon": 9.727205,
      "eva_nr": "8100728",
      "ifopt_id": "at:48:738",
      "address": "6850 Schoren,"
    },
    {
      "bsts_id": "1706",
      "name": "Dreistetten",
      "lat": 47.872435,
      "lon": 16.11045,
      "eva_nr": "8100731",
      "ifopt_id": "at:43:7096",
      "address": "2753 Dreistetten, Gutensteinerstraße"
    },
    {
      "bsts_id": "299",
      "name": "Drösing",
      "lat": 48.540761,
      "lon": 16.896339,
      "eva_nr": "8100221",
      "ifopt_id": "at:43:3309",
      "address": "2265 Drösing,"
    },
    {
      "bsts_id": "291",
      "name": "Dölsach",
      "lat": 46.814964,
      "lon": 12.833623,
      "eva_nr": "8100143",
      "ifopt_id": "at:47:3872",
      "address": "9991 Dölsach, Dölsach 44"
    },
    {
      "bsts_id": "1202",
      "name": "Dürnbach",
      "lat": 47.978084,
      "lon": 14.354015,
      "eva_nr": "8100733",
      "ifopt_id": "at:44:43940",
      "address": "4452 Ternberg, Dürnbachstraße 41"
    },
    {
      "bsts_id": "1786",
      "name": "Dürnberg",
      "lat": 48.331475,
      "lon": 14.192371,
      "eva_nr": "8100734",
      "ifopt_id": "at:44:44002",
      "address": "4100 Ottensheim,"
    },
    {
      "bsts_id": "301",
      "name": "Dürnkrut",
      "lat": 48.469641,
      "lon": 16.860439,
      "eva_nr": "8100724",
      "ifopt_id": "at:43:3310",
      "address": "2263 Dürnkrut, Bahnhofplatz 2"
    },
    {
      "bsts_id": "1720",
      "name": "Dürrwien",
      "lat": 48.178448,
      "lon": 16.061864,
      "eva_nr": "8100735",
      "ifopt_id": "at:43:3314",
      "address": "3021 Dürrwien,"
    },
    {
      "bsts_id": "307",
      "name": "Eben im Pongau",
      "lat": 47.406418,
      "lon": 13.396432,
      "eva_nr": "8100140",
      "ifopt_id": "at:45:52343",
      "address": "5531 Eben/Pongau, Hauptstraße 43"
    },
    {
      "bsts_id": "325",
      "name": "Ebenfurth",
      "lat": 47.877446,
      "lon": 16.362037,
      "eva_nr": "8100225",
      "ifopt_id": "at:43:3318",
      "address": "2490 Ebenfurth, Kreuzelstraße"
    },
    {
      "bsts_id": "363",
      "name": "Ebensee",
      "lat": 47.804502,
      "lon": 13.771338,
      "eva_nr": "8100155",
      "ifopt_id": "at:44:46441",
      "address": "4802 Ebensee, Eisenbahnergasse 2"
    },
    {
      "bsts_id": "364",
      "name": "Ebensee Landungsplatz",
      "lat": 47.812274,
      "lon": 13.775089,
      "eva_nr": "8100766",
      "ifopt_id": "at:44:46440",
      "address": "4802 Ebensee, Hauptstraße 36"
    },
    {
      "bsts_id": "390",
      "name": "Eberschwang",
      "lat": 48.151652,
      "lon": 13.536614,
      "eva_nr": "8100740",
      "ifopt_id": "at:44:48300",
      "address": "4906 Eberschwang, Feichtet 21"
    },
    {
      "bsts_id": "309",
      "name": "Ebreichsdorf",
      "lat": 47.962666,
      "lon": 16.418967,
      "eva_nr": "8100226",
      "ifopt_id": "at:43:3326",
      "address": "2442 Ebreichsdorf, Bahnstraße 38"
    },
    {
      "bsts_id": "321",
      "name": "Edlitz-Grimmenstein",
      "lat": 47.616972,
      "lon": 16.127642,
      "eva_nr": "8100189",
      "ifopt_id": "at:43:7040",
      "address": "2842 Edlitz/Grimmenstein, Wechselbundesstraße 49"
    },
    {
      "bsts_id": "336",
      "name": "Eggenburg",
      "lat": 48.637999,
      "lon": 15.814871,
      "eva_nr": "8100201",
      "ifopt_id": "at:43:3339",
      "address": "3730 Eggenburg, Bahnstraße 3"
    },
    {
      "bsts_id": "1910",
      "name": "Ehrenhausen",
      "lat": 46.727509,
      "lon": 15.585435,
      "eva_nr": "8100763",
      "ifopt_id": "at:46:76",
      "address": "8461 Ehrenhausen, Bahnhofplatz 18"
    },
    {
      "bsts_id": "340",
      "name": "Ehrwald-Zugspitzbahn",
      "lat": 47.41011,
      "lon": 10.913527,
      "eva_nr": "8100089",
      "ifopt_id": "at:47:2244",
      "address": "6632 Ehrwald,"
    },
    {
      "bsts_id": "341",
      "name": "Eichberg",
      "lat": 47.671914,
      "lon": 15.910948,
      "eva_nr": "8100736",
      "ifopt_id": "at:43:8765",
      "address": "2640 Eichberg, Eichbergstraße 12"
    },
    {
      "bsts_id": "1905",
      "name": "Eichgraben-Altlengbach",
      "lat": 48.173647,
      "lon": 15.9818,
      "eva_nr": "8100749",
      "ifopt_id": "at:43:3347",
      "address": "3032 Eichgraben,"
    },
    {
      "bsts_id": "305",
      "name": "Eisenstadt",
      "lat": 47.839247,
      "lon": 16.528894,
      "eva_nr": "8100231",
      "ifopt_id": "at:41:3351",
      "address": "7000 Eisenstadt, Bahnhofplatz 3"
    },
    {
      "bsts_id": "389",
      "name": "Eisenstadt Schule",
      "lat": 47.843879,
      "lon": 16.536694,
      "eva_nr": "8100773",
      "ifopt_id": "at:41:3490",
      "address": "7000 Eisenstadt, Bad Kissingen-Platz"
    },
    {
      "bsts_id": "27",
      "name": "Elsbethen",
      "lat": 47.761054,
      "lon": 13.080361,
      "eva_nr": "8100772",
      "ifopt_id": "at:45:50470",
      "address": "5412 Puch/Oberalm, Austraße 51"
    },
    {
      "bsts_id": "1565",
      "name": "Emmersdorf",
      "lat": 46.59532,
      "lon": 13.572502,
      "eva_nr": "8100745",
      "ifopt_id": "at:42:3902",
      "address": "9611 Emmersdorf, B 111 - Michelhofen"
    },
    {
      "bsts_id": "370",
      "name": "Enns",
      "lat": 48.220983,
      "lon": 14.466675,
      "eva_nr": "8100011",
      "ifopt_id": "at:44:41910",
      "address": "4470 Enns, Eckl-Platz 1"
    },
    {
      "bsts_id": "2152",
      "name": "Ennsdorf",
      "lat": 48.216081,
      "lon": 14.496899,
      "eva_nr": "8100759",
      "ifopt_id": "at:43:7243",
      "address": "4482 Ennsdorf,"
    },
    {
      "bsts_id": "373",
      "name": "Enzersdorf bei Staatz",
      "lat": 48.672316,
      "lon": 16.511146,
      "eva_nr": "8100775",
      "ifopt_id": "at:43:3388",
      "address": "2134  Enzersdorf bei Staatz, Enzersdorf bei Staatz 163"
    },
    {
      "bsts_id": "394",
      "name": "Enzesfeld-Lindabrunn",
      "lat": 47.921214,
      "lon": 16.187141,
      "eva_nr": "8100757",
      "ifopt_id": "at:43:3401",
      "address": "2551 Enzesfeld/Lindabrunn, Hauptstraße 5"
    },
    {
      "bsts_id": "379",
      "name": "Erlauf",
      "lat": 48.183966,
      "lon": 15.182055,
      "eva_nr": "8100764",
      "ifopt_id": "at:43:7435",
      "address": "3253 Erlauf,"
    },
    {
      "bsts_id": "383",
      "name": "Ernsthofen",
      "lat": 48.126599,
      "lon": 14.48018,
      "eva_nr": "8100747",
      "ifopt_id": "at:43:8241",
      "address": "4432 Ernsthofen, Bahnhofstraße 6"
    },
    {
      "bsts_id": "1176",
      "name": "Eschenau",
      "lat": 47.306619,
      "lon": 13.008085,
      "eva_nr": "8100770",
      "ifopt_id": "at:45:52189",
      "address": "5660 Eschenau,"
    },
    {
      "bsts_id": "324",
      "name": "Etsdorf-Straß",
      "lat": 48.453282,
      "lon": 15.730264,
      "eva_nr": "8100746",
      "ifopt_id": "at:43:3408",
      "address": "3492 Etsdorf/Straß, Am Bahnhof 1"
    },
    {
      "bsts_id": "1977",
      "name": "Eugendorf",
      "lat": 47.873321,
      "lon": 13.116821,
      "eva_nr": "8100774",
      "ifopt_id": "at:45:50230",
      "address": "5301 Eugendorf,"
    },
    {
      "bsts_id": "403",
      "name": "Faak am See",
      "lat": 46.564537,
      "lon": 13.912966,
      "eva_nr": "8100084",
      "ifopt_id": "at:42:2139",
      "address": "9583 Faak am See, Seeuferlandesstraße 22"
    },
    {
      "bsts_id": "418",
      "name": "Fehring",
      "lat": 46.949229,
      "lon": 16.013067,
      "eva_nr": "8100176",
      "ifopt_id": "at:46:1960",
      "address": "8350 Fehring, Brunn 38"
    },
    {
      "bsts_id": "404",
      "name": "Feldbach",
      "lat": 46.958352,
      "lon": 15.888578,
      "eva_nr": "8100175",
      "ifopt_id": "at:46:1923",
      "address": "8330 Feldbach, Bahnhofstraße 3"
    },
    {
      "bsts_id": "448",
      "name": "Feldkirch",
      "lat": 47.241335,
      "lon": 9.604176,
      "eva_nr": "8100197",
      "ifopt_id": "at:48:817",
      "address": "6800 Feldkirch, Bahnhofstraße 42"
    },
    {
      "bsts_id": "454",
      "name": "Feldkirch-Amberg",
      "lat": 47.256139,
      "lon": 9.622095,
      "eva_nr": "8100791",
      "ifopt_id": "at:48:847",
      "address": "6800 Amberg, Logergasse/Kalkofenweg 1"
    },
    {
      "bsts_id": "426",
      "name": "Feldkirchen in Kärnten",
      "lat": 46.721568,
      "lon": 14.098765,
      "eva_nr": "8100039",
      "ifopt_id": "at:42:3807",
      "address": "9560 Feldkirchen/Kärnten, Bahnhofstraße 46"
    },
    {
      "bsts_id": "542",
      "name": "Feldkirchen-Seiersberg",
      "lat": 47.012663,
      "lon": 15.440436,
      "eva_nr": "8103174",
      "ifopt_id": "at:46:942",
      "address": "8055 Graz-Seiersberg,"
    },
    {
      "bsts_id": "462",
      "name": "Felixdorf",
      "lat": 47.886955,
      "lon": 16.247838,
      "eva_nr": "8100780",
      "ifopt_id": "at:43:3415",
      "address": "2603 Felixdorf, Mühlstraße 2"
    },
    {
      "bsts_id": "506",
      "name": "Fels",
      "lat": 48.429117,
      "lon": 15.822841,
      "eva_nr": "8100568",
      "ifopt_id": "at:43:3420",
      "address": "3481 Fels/Wagram, Bahnhofplatz 65"
    },
    {
      "bsts_id": "429",
      "name": "Fentsch-St. Lorenzen",
      "lat": 47.251574,
      "lon": 14.893057,
      "eva_nr": "8100783",
      "ifopt_id": "at:46:7465",
      "address": "8715  St. Margarethen, St. Lorenzen 28"
    },
    {
      "bsts_id": "1872",
      "name": "Ferndorf",
      "lat": 46.73238,
      "lon": 13.629403,
      "eva_nr": "8100781",
      "ifopt_id": "at:42:2131",
      "address": "9702 Ferndorf,"
    },
    {
      "bsts_id": "443",
      "name": "Feuerwerksanstalt",
      "lat": 47.848913,
      "lon": 16.189333,
      "eva_nr": "8100784",
      "ifopt_id": "at:43:7093",
      "address": "2752 Feuerwerksanstalt, Feuerwerksanstalt 164"
    },
    {
      "bsts_id": "444",
      "name": "Fieberbrunn",
      "lat": 47.490993,
      "lon": 12.528794,
      "eva_nr": "8100053",
      "ifopt_id": "at:47:1155",
      "address": "6391 Fieberbrunn, Bahnhofbichl 14"
    },
    {
      "bsts_id": "2338",
      "name": "Finkenstein",
      "lat": 46.568804,
      "lon": 13.86835,
      "eva_nr": "8100788",
      "ifopt_id": "at:42:2138",
      "address": "9584 Finkenstein,"
    },
    {
      "bsts_id": "402",
      "name": "Fischamend",
      "lat": 48.11671,
      "lon": 16.61524,
      "eva_nr": "8100235",
      "ifopt_id": "at:43:3430",
      "address": "2401 Fischamend,"
    },
    {
      "bsts_id": "2570",
      "name": "Flaurling",
      "lat": 47.288989,
      "lon": 11.143057,
      "eva_nr": "8100795",
      "ifopt_id": "at:47:1197",
      "address": "6403 Flaurling, Bahnhofstraße 1"
    },
    {
      "bsts_id": "1770",
      "name": "Flughafen Graz Feldkirchen",
      "lat": 46.998258,
      "lon": 15.449271,
      "eva_nr": "8100601",
      "ifopt_id": "at:46:1746",
      "address": "8073 Graz,"
    },
    {
      "bsts_id": "528",
      "name": "Flughafen Wien",
      "lat": 48.120872,
      "lon": 16.563007,
      "eva_nr": "8100353",
      "ifopt_id": "at:43:4708",
      "address": "1300 Wien Flughafen,"
    },
    {
      "bsts_id": "2618",
      "name": "Forst Hilti",
      "lat": 47.18138,
      "lon": 9.521241,
      "eva_nr": "8101898",
      "ifopt_id": "fl:21:4145",
      "address": "9595 Schaan Vaduz,"
    },
    {
      "bsts_id": "474",
      "name": "Frankenmarkt",
      "lat": 47.983101,
      "lon": 13.431919,
      "eva_nr": "8100018",
      "ifopt_id": "at:44:47870",
      "address": "4890 Frankenmarkt, Hauchhorn 11"
    },
    {
      "bsts_id": "401",
      "name": "Frastanz",
      "lat": 47.219825,
      "lon": 9.638707,
      "eva_nr": "8100069",
      "ifopt_id": "at:48:868",
      "address": "6820 Frastanz, Sonnenbergstraße 7"
    },
    {
      "bsts_id": "505",
      "name": "Frauental-Bad Gams",
      "lat": 46.823998,
      "lon": 15.255045,
      "ifopt_id": "at:46:1534"
    },
    {
      "bsts_id": "486",
      "name": "Freistadt",
      "lat": 48.495441,
      "lon": 14.48151,
      "eva_nr": "8100239",
      "ifopt_id": "at:44:45000",
      "address": "4240 Freistadt, Trölsberg 26"
    },
    {
      "bsts_id": "412",
      "name": "Friedberg",
      "lat": 47.434945,
      "lon": 16.053937,
      "eva_nr": "8100185",
      "ifopt_id": "at:46:7543",
      "address": "8240 Friedberg, Bahnhofstraße 60"
    },
    {
      "bsts_id": "496",
      "name": "Friedburg",
      "lat": 47.9971,
      "lon": 13.234437,
      "eva_nr": "8100241",
      "ifopt_id": "at:44:49331",
      "address": "5211 Lengau, Bahnhofstraße 23"
    },
    {
      "bsts_id": "433",
      "name": "Friesach",
      "lat": 46.953199,
      "lon": 14.410687,
      "eva_nr": "8100076",
      "ifopt_id": "at:42:3625",
      "address": "9360 Friesach, Bahnhofstraße 38"
    },
    {
      "bsts_id": "517",
      "name": "Fritzens-Wattens",
      "lat": 47.30213,
      "lon": 11.588848,
      "eva_nr": "8100104",
      "ifopt_id": "at:47:1182",
      "address": "6122  Fritzens Wattens, Bahnhofplatz 1"
    },
    {
      "bsts_id": "502",
      "name": "Frohnleiten",
      "lat": 47.266529,
      "lon": 15.32697,
      "eva_nr": "8100033",
      "ifopt_id": "at:46:2042",
      "address": "8130 Frohnleiten, Mauritzenerstraße 15"
    },
    {
      "bsts_id": "510",
      "name": "Frättingsdorf",
      "lat": 48.643268,
      "lon": 16.511979,
      "eva_nr": "8100808",
      "ifopt_id": "at:43:3449",
      "address": "2132 Frättingsdorf, Ringofenstraße 5"
    },
    {
      "bsts_id": "431",
      "name": "Furth-Göttweig",
      "lat": 48.373435,
      "lon": 15.616065,
      "eva_nr": "8100244",
      "ifopt_id": "at:43:8000",
      "address": "3511 Furth, Obere Landstraße 90"
    },
    {
      "bsts_id": "430",
      "name": "Furth-Palt",
      "lat": 48.38434,
      "lon": 15.606094,
      "eva_nr": "8100813",
      "ifopt_id": "at:43:8001",
      "address": "3511 Furth, Bahnhofstraße 72"
    },
    {
      "bsts_id": "482",
      "name": "Föderlach",
      "lat": 46.601909,
      "lon": 13.959164,
      "eva_nr": "8100797",
      "ifopt_id": "at:42:3652",
      "address": "9241 Föderlach, Landesstraße 44"
    },
    {
      "bsts_id": "481",
      "name": "Fürnitz",
      "lat": 46.563079,
      "lon": 13.813454,
      "eva_nr": "8100368",
      "ifopt_id": "at:42:3659",
      "address": "9586 Fürnitz, Bahnhofstraße 8a"
    },
    {
      "bsts_id": "512",
      "name": "Fürstenfeld",
      "lat": 47.042156,
      "lon": 16.0836,
      "eva_nr": "8100177",
      "ifopt_id": "at:46:1982",
      "address": "8280 Fürstenfeld, Bahnstraße 15"
    },
    {
      "bsts_id": "1599",
      "name": "Gaflenz",
      "lat": 47.893887,
      "lon": 14.724136,
      "eva_nr": "8100154",
      "ifopt_id": "at:44:46960",
      "address": "3334 Gaflenz, Markt 40"
    },
    {
      "bsts_id": "545",
      "name": "Gaisbach-Wartberg",
      "lat": 48.330511,
      "lon": 14.506002,
      "eva_nr": "8100246",
      "ifopt_id": "at:44:44471",
      "address": "4231 Gaisbach/Wartberg, Untergaisbach 44"
    },
    {
      "bsts_id": "1088",
      "name": "Gaisfeld",
      "lat": 47.021229,
      "lon": 15.198085,
      "ifopt_id": "at:46:1283"
    },
    {
      "bsts_id": "553",
      "name": "Gaishorn",
      "lat": 47.489355,
      "lon": 14.547118,
      "eva_nr": "8100819",
      "ifopt_id": "at:46:7435",
      "address": "8783 Gaishorn, Gaishorn 60"
    },
    {
      "bsts_id": "2143",
      "name": "Gaisruck",
      "lat": 48.394039,
      "lon": 16.065283,
      "eva_nr": "8100823",
      "ifopt_id": "at:43:3481",
      "address": "3464 Gaisruck,"
    },
    {
      "bsts_id": "554",
      "name": "Gars-Thunau",
      "lat": 48.597719,
      "lon": 15.655353,
      "eva_nr": "8100247",
      "ifopt_id": "at:43:3486",
      "address": "3571 Gars/Kamp, Bahnhofstraße 98"
    },
    {
      "bsts_id": "716",
      "name": "Garsten",
      "lat": 48.023902,
      "lon": 14.408175,
      "eva_nr": "8100248",
      "ifopt_id": "at:44:43900",
      "address": "4451 Garsten, St. Berthold-Allee 8a"
    },
    {
      "bsts_id": "726",
      "name": "Gattendorf",
      "lat": 48.010546,
      "lon": 16.98058,
      "eva_nr": "8100332",
      "ifopt_id": "at:41:5970",
      "address": "2474 Gattendorf, Flurgasse 2"
    },
    {
      "bsts_id": "822",
      "name": "Gedersdorf",
      "lat": 48.432939,
      "lon": 15.692362,
      "eva_nr": "8100828",
      "ifopt_id": "at:43:3493",
      "address": "3494 Gedersdorf,"
    },
    {
      "bsts_id": "746",
      "name": "Geinberg",
      "lat": 48.266289,
      "lon": 13.290764,
      "eva_nr": "8100830",
      "ifopt_id": "at:44:49131",
      "address": "4943 Geinberg,"
    },
    {
      "bsts_id": "1251761",
      "name": "Geiselbergstraße",
      "lat": 48.175693,
      "lon": 16.407262,
      "eva_nr": "8101555",
      "ifopt_id": "at:49:484",
      "address": "1110 Wien,"
    },
    {
      "bsts_id": "1449",
      "name": "Gemeinlebarn",
      "lat": 48.335967,
      "lon": 15.805025,
      "eva_nr": "8100831",
      "ifopt_id": "at:43:3496",
      "address": "3133 Gemeinlebarn,"
    },
    {
      "bsts_id": "570",
      "name": "Gerasdorf",
      "lat": 48.293864,
      "lon": 16.484005,
      "eva_nr": "8100869",
      "ifopt_id": "at:43:3499",
      "address": "2201 Gerasdorf, Elfingerweg"
    },
    {
      "bsts_id": "2544",
      "name": "Gerling im Pinzgau",
      "lat": 47.390314,
      "lon": 12.827418,
      "eva_nr": "8100879",
      "ifopt_id": "at:45:56901",
      "address": "5760 Gerling/Pinzgau,"
    },
    {
      "bsts_id": "1880",
      "name": "Gerling OÖ",
      "lat": 48.397335,
      "lon": 14.076901,
      "eva_nr": "8100878",
      "ifopt_id": "at:44:44052",
      "address": "4175 Herzogsdorf, Gerling 31"
    },
    {
      "bsts_id": "904",
      "name": "Gersthof",
      "lat": 48.230833,
      "lon": 16.329045,
      "eva_nr": "8100249",
      "ifopt_id": "at:49:393",
      "address": "1180 Wien, Gerthoferstraße 2a"
    },
    {
      "bsts_id": "2252",
      "name": "Getzersdorf",
      "lat": 48.324036,
      "lon": 15.715278,
      "eva_nr": "8100834",
      "ifopt_id": "at:43:8002",
      "address": "3131 Getzersdorf, Bahnhofgasse 1"
    },
    {
      "bsts_id": "1993",
      "name": "Gießenbach",
      "lat": 47.374574,
      "lon": 11.2368,
      "eva_nr": "8100549",
      "ifopt_id": "at:47:2230",
      "address": "6108 Scharnitz,"
    },
    {
      "bsts_id": "456",
      "name": "Gisingen",
      "lat": 47.255529,
      "lon": 9.597952,
      "eva_nr": "8100842",
      "ifopt_id": "at:48:975",
      "address": "6800 Gisingen, Haltestellenweg 1"
    },
    {
      "bsts_id": "2347",
      "name": "Glandorf",
      "lat": 46.750609,
      "lon": 14.381205,
      "eva_nr": "8100849",
      "ifopt_id": "at:42:3636",
      "address": "9300 Glandorf,"
    },
    {
      "bsts_id": "618",
      "name": "Glanegg",
      "lat": 46.71724,
      "lon": 14.211348,
      "eva_nr": "8100850",
      "ifopt_id": "at:42:3804",
      "address": "9555 Glanegg, Glanegg 6"
    },
    {
      "bsts_id": "620",
      "name": "Gleisdorf",
      "lat": 47.099791,
      "lon": 15.708481,
      "eva_nr": "8100195",
      "ifopt_id": "at:46:28",
      "address": "8200 Gleisdorf,"
    },
    {
      "bsts_id": "1990",
      "name": "Gleißenfeld",
      "lat": 47.6799,
      "lon": 16.12863,
      "eva_nr": "8100851",
      "ifopt_id": "at:43:7037",
      "address": "2831 Gleissenfeld, Bahngasse"
    },
    {
      "bsts_id": "1813",
      "name": "Glinzendorf",
      "lat": 48.242135,
      "lon": 16.639908,
      "eva_nr": "8100852",
      "ifopt_id": "at:43:3527",
      "address": "2282 Glinzendorf, Mühlgasse 35"
    },
    {
      "bsts_id": "626",
      "name": "Gloggnitz",
      "lat": 47.67744,
      "lon": 15.947197,
      "eva_nr": "8100026",
      "ifopt_id": "at:43:8761",
      "address": "2640 Gloggnitz, Bahnhof 1"
    },
    {
      "bsts_id": "752",
      "name": "Gmunden",
      "lat": 47.92538,
      "lon": 13.783001,
      "eva_nr": "8100151",
      "ifopt_id": "at:44:46010",
      "address": "4810 Gmunden, Bahnhofstraße 68"
    },
    {
      "bsts_id": "630",
      "name": "Gmünd N.Ö.",
      "lat": 48.764526,
      "lon": 14.984686,
      "eva_nr": "8100129",
      "ifopt_id": "at:43:7169",
      "address": "3950 Gmünd, Bahnhofplatz 1"
    },
    {
      "bsts_id": "2137",
      "name": "Gniebing",
      "lat": 46.96194,
      "lon": 15.852801,
      "eva_nr": "8100857",
      "ifopt_id": "at:46:1765",
      "address": "8330 Gniebing,"
    },
    {
      "bsts_id": "1235",
      "name": "Gobelsburg",
      "lat": 48.462704,
      "lon": 15.701205,
      "eva_nr": "8100859",
      "ifopt_id": "at:43:3528",
      "address": "3550 Gobelsburg,"
    },
    {
      "bsts_id": "599",
      "name": "Goisern Jodschwefelbad",
      "lat": 47.658566,
      "lon": 13.608993,
      "eva_nr": "8100863",
      "ifopt_id": "at:44:46570",
      "address": "4822  Bad Goisern, Bundesstraße 36"
    },
    {
      "bsts_id": "585",
      "name": "Golling-Abtenau",
      "lat": 47.600836,
      "lon": 13.164426,
      "eva_nr": "8100041",
      "ifopt_id": "at:45:50591",
      "address": "5440 Golling, Bahnhofstraße 93"
    },
    {
      "bsts_id": "2240",
      "name": "Gopperding",
      "lat": 48.440986,
      "lon": 13.458304,
      "eva_nr": "8100864",
      "ifopt_id": "at:44:48531",
      "address": "4782 St. Florian am Inn,"
    },
    {
      "bsts_id": "662",
      "name": "Gosdorf",
      "lat": 46.724579,
      "lon": 15.798114,
      "eva_nr": "8100886",
      "ifopt_id": "at:46:1858",
      "address": "8482 Gosdorf, Gosdorf 84"
    },
    {
      "bsts_id": "562",
      "name": "Grafendorf",
      "lat": 47.346655,
      "lon": 16.003324,
      "eva_nr": "8100182",
      "ifopt_id": "at:46:5211",
      "address": "8232 Grafendorf, Am Bahnhof 8"
    },
    {
      "bsts_id": "683",
      "name": "Grafenstein",
      "lat": 46.618797,
      "lon": 14.459497,
      "eva_nr": "8100256",
      "ifopt_id": "at:42:3820",
      "address": "9131 Grafenstein, Truttendorf 12"
    },
    {
      "bsts_id": "642",
      "name": "Gramatneusiedl",
      "lat": 48.034917,
      "lon": 16.491315,
      "eva_nr": "8100369",
      "ifopt_id": "at:43:3538",
      "address": "2440 Gramatneusiedl, Am Bahnhof 1"
    },
    {
      "bsts_id": "747",
      "name": "Gratwein-Gratkorn",
      "lat": 47.129028,
      "lon": 15.322363,
      "eva_nr": "8100370",
      "ifopt_id": "at:46:525",
      "address": "8112 Gratwein,"
    },
    {
      "bsts_id": "2566531",
      "name": "Graz Don Bosco",
      "lat": 47.058813,
      "lon": 15.419342,
      "eva_nr": "8103490",
      "ifopt_id": "at:46:4498",
      "address": "8020 Graz, Kärntnerstraße 41"
    },
    {
      "bsts_id": "541",
      "name": "Graz Hbf",
      "lat": 47.072727,
      "lon": 15.417106,
      "eva_nr": "8100173",
      "ifopt_id": "at:46:3040",
      "address": "8020 Graz, Europaplatz 4"
    },
    {
      "bsts_id": "608",
      "name": "Graz Köflacherbf",
      "lat": 47.068243,
      "lon": 15.413726,
      "ifopt_id": "at:46:3029"
    },
    {
      "bsts_id": "1730",
      "name": "Graz Liebenau-Murpark",
      "lat": 47.040107,
      "lon": 15.462299,
      "eva_nr": "8103487",
      "ifopt_id": "at:46:3747",
      "address": "8020 Graz,"
    },
    {
      "bsts_id": "652",
      "name": "Graz Ostbf-Messe",
      "lat": 47.053688,
      "lon": 15.448392,
      "eva_nr": "8100371",
      "ifopt_id": "at:46:3038",
      "address": "8010 Graz,"
    },
    {
      "bsts_id": "1769",
      "name": "Graz Puntigam",
      "lat": 47.030965,
      "lon": 15.429162,
      "eva_nr": "8101398",
      "ifopt_id": "at:46:4279",
      "address": "8055  Graz-Puntigam, Schwarzer Weg 144"
    },
    {
      "bsts_id": "2001",
      "name": "Graz Straßgang",
      "lat": 47.019888,
      "lon": 15.405097,
      "eva_nr": "8101507",
      "ifopt_id": "at:46:3032"
    },
    {
      "bsts_id": "611",
      "name": "Graz Webling",
      "lat": 47.032998,
      "lon": 15.405694,
      "ifopt_id": "at:46:3031"
    },
    {
      "bsts_id": "610",
      "name": "Graz Wetzelsdorf",
      "lat": 47.051188,
      "lon": 15.401515,
      "ifopt_id": "at:46:3030"
    },
    {
      "bsts_id": "689",
      "name": "Greifenburg-Weißensee",
      "lat": 46.741349,
      "lon": 13.190957,
      "eva_nr": "8100146",
      "ifopt_id": "at:42:3866",
      "address": "9761 Greifenburg, Greifenburg 108"
    },
    {
      "bsts_id": "1119",
      "name": "Greifenstein-Altenberg",
      "lat": 48.344744,
      "lon": 16.239853,
      "eva_nr": "8100257",
      "ifopt_id": "at:43:3544",
      "address": "3422 Greifenstein, Hauptstraße 2"
    },
    {
      "bsts_id": "579",
      "name": "Grein Stadt",
      "lat": 48.229825,
      "lon": 14.855724,
      "eva_nr": "8100858",
      "ifopt_id": "at:44:44881",
      "address": "4360 Grein, Franz-Herndl-Weg 2"
    },
    {
      "bsts_id": "560",
      "name": "Grein-Bad Kreuzen",
      "lat": 48.220854,
      "lon": 14.85131,
      "eva_nr": "8100826",
      "ifopt_id": "at:44:44880",
      "address": "4360 Grein, Ufer 18"
    },
    {
      "bsts_id": "59",
      "name": "Greinsfurth",
      "lat": 48.107943,
      "lon": 14.838537,
      "eva_nr": "8100836",
      "ifopt_id": "at:43:7893",
      "address": "3300 Greinsfurth, Waidhofnerstraße 51"
    },
    {
      "bsts_id": "2112",
      "name": "Gries",
      "lat": 47.042246,
      "lon": 11.485486,
      "eva_nr": "8100258",
      "ifopt_id": "at:47:2266",
      "address": "6156 Gries/Brenner, Ritten 143"
    },
    {
      "bsts_id": "2197",
      "name": "Gries im Pinzgau",
      "lat": 47.28802,
      "lon": 12.890675,
      "eva_nr": "8100892",
      "ifopt_id": "at:45:56900",
      "address": "5662 Gries/Pinzgau, Dreibrüderweg 1"
    },
    {
      "bsts_id": "601",
      "name": "Grieskirchen-Gallspach",
      "lat": 48.231243,
      "lon": 13.839023,
      "eva_nr": "8100022",
      "ifopt_id": "at:44:47510",
      "address": "4710 Grieskirchen, Bahnhofstraße 26"
    },
    {
      "bsts_id": "445",
      "name": "Grieswirt",
      "lat": 47.509509,
      "lon": 12.467611,
      "eva_nr": "8100907",
      "ifopt_id": "at:47:1156",
      "address": "6380 Grießwirt, Winkl-Sonnseite 7b"
    },
    {
      "bsts_id": "1676",
      "name": "Groß Sierning",
      "lat": 48.187837,
      "lon": 15.456736,
      "eva_nr": "8100890",
      "ifopt_id": "at:43:7224",
      "address": "3384 Groß Sierning,"
    },
    {
      "bsts_id": "584",
      "name": "Groß St Florian",
      "lat": 46.821014,
      "lon": 15.317741,
      "ifopt_id": "at:46:295"
    },
    {
      "bsts_id": "2472",
      "name": "Groß Weikersdorf",
      "lat": 48.468935,
      "lon": 15.976547,
      "eva_nr": "8100906",
      "ifopt_id": "at:43:3580",
      "address": "3701  Groß Weikersdorf, Bahnstraße 31"
    },
    {
      "bsts_id": "563",
      "name": "Großendorf",
      "lat": 48.038739,
      "lon": 14.055713,
      "eva_nr": "8100570",
      "ifopt_id": "at:44:42451",
      "address": "4551 Ried/Traunkreis,"
    },
    {
      "bsts_id": "700",
      "name": "Großraming",
      "lat": 47.882082,
      "lon": 14.551613,
      "eva_nr": "8100876",
      "ifopt_id": "at:44:46910",
      "address": "4463 Großraming, Bahnhofstraße 1"
    },
    {
      "bsts_id": "686",
      "name": "Gröbming",
      "lat": 47.426681,
      "lon": 13.900948,
      "eva_nr": "8100135",
      "ifopt_id": "at:46:7024",
      "address": "8962 Gröbming, Moosheim 100"
    },
    {
      "bsts_id": "736",
      "name": "Grünau im Almtal",
      "lat": 47.853513,
      "lon": 13.951594,
      "eva_nr": "8100261",
      "ifopt_id": "at:44:46340",
      "address": "4645 Grünau im Almtal, Bahnhofstraße 2"
    },
    {
      "bsts_id": "706",
      "name": "Grünbach am Schneeberg",
      "lat": 47.797431,
      "lon": 15.997909,
      "eva_nr": "8100882",
      "ifopt_id": "at:43:7116",
      "address": "2733 Grünbach/Schneeberg, Bahnstraße 17"
    },
    {
      "bsts_id": "709",
      "name": "Grünbach Kohlenwerk",
      "lat": 47.79815,
      "lon": 15.97186,
      "eva_nr": "8100847",
      "ifopt_id": "at:43:7118",
      "address": "2733 Grünbach/Schneeberg, Steigerweg"
    },
    {
      "bsts_id": "708",
      "name": "Grünbach Schule",
      "lat": 47.801347,
      "lon": 15.981422,
      "eva_nr": "8101837",
      "ifopt_id": "at:43:7117",
      "address": "2733 Grünbach/Schneeberg, Neubaustraße"
    },
    {
      "bsts_id": "557",
      "name": "Gstatterboden im Nationalpark",
      "lat": 47.591479,
      "lon": 14.633606,
      "eva_nr": "8100159",
      "ifopt_id": "at:46:6802",
      "address": "8913 Admont, Gstatterboden 1"
    },
    {
      "bsts_id": "1379",
      "name": "Gumpoldskirchen",
      "lat": 48.041432,
      "lon": 16.285096,
      "eva_nr": "8100867",
      "ifopt_id": "at:43:3602",
      "address": "2352 Gumpoldskirchen, Bahngasse 1"
    },
    {
      "bsts_id": "742",
      "name": "Gunskirchen",
      "lat": 48.13279,
      "lon": 13.945971,
      "eva_nr": "8100845",
      "ifopt_id": "at:44:42750",
      "address": "4623 Gunskirchen, Rotaxstraße 4"
    },
    {
      "bsts_id": "734",
      "name": "Guntersdorf",
      "lat": 48.642334,
      "lon": 16.054172,
      "eva_nr": "8100894",
      "ifopt_id": "at:43:3608",
      "address": "2042 Guntersdorf, Grund 89"
    },
    {
      "bsts_id": "740",
      "name": "Guntramsdorf-Kaiserau Haltestelle",
      "lat": 48.044405,
      "lon": 16.324879,
      "eva_nr": "8100372",
      "ifopt_id": "at:43:3617",
      "address": "2353 Guntramsdorf, Bahnstraße"
    },
    {
      "bsts_id": "1378",
      "name": "Guntramsdorf-Thallern",
      "lat": 48.0517,
      "lon": 16.297207,
      "eva_nr": "8100846",
      "ifopt_id": "at:43:3616",
      "address": "2353 Guntramsdorf, Anningerstraße"
    },
    {
      "bsts_id": "745",
      "name": "Gurten",
      "lat": 48.244074,
      "lon": 13.334302,
      "eva_nr": "8100263",
      "ifopt_id": "at:44:48081",
      "address": "4942 Gurten, Bahnhofstraße 21"
    },
    {
      "bsts_id": "1790",
      "name": "Gussendorf",
      "lat": 46.829684,
      "lon": 15.34865,
      "ifopt_id": "at:46:305"
    },
    {
      "bsts_id": "722",
      "name": "Gutenstein",
      "lat": 47.876936,
      "lon": 15.910553,
      "eva_nr": "8100571",
      "ifopt_id": "at:43:7105",
      "address": "2770 Gutenstein, Vorderbruck 22"
    },
    {
      "bsts_id": "547",
      "name": "Gänserndorf",
      "lat": 48.339956,
      "lon": 16.732563,
      "eva_nr": "8100245",
      "ifopt_id": "at:43:3622",
      "address": "2230 Gänserndorf, Nordbahnstraße 1"
    },
    {
      "bsts_id": "2337",
      "name": "Gödersdorf",
      "lat": 46.568536,
      "lon": 13.847478,
      "eva_nr": "8100861",
      "ifopt_id": "at:42:2137",
      "address": "9585 Gödersdorf, Hauptstraße 69"
    },
    {
      "bsts_id": "679",
      "name": "Göllersdorf",
      "lat": 48.492492,
      "lon": 16.126234,
      "eva_nr": "8100827",
      "ifopt_id": "at:43:3647",
      "address": "2013 Göllersdorf, An der Bahn 100"
    },
    {
      "bsts_id": "580",
      "name": "Göpfritz",
      "lat": 48.729544,
      "lon": 15.394367,
      "eva_nr": "8100200",
      "ifopt_id": "at:43:7163",
      "address": "3800 Göpfritz, Bahnhofstraße 18"
    },
    {
      "bsts_id": "723",
      "name": "Görtschach-Förolach",
      "lat": 46.623278,
      "lon": 13.470921,
      "eva_nr": "8100862",
      "ifopt_id": "at:42:3904",
      "address": "9615 Görtschach, Görtschach 45"
    },
    {
      "bsts_id": "654",
      "name": "Götzendorf",
      "lat": 48.025459,
      "lon": 16.588629,
      "eva_nr": "8100254",
      "ifopt_id": "at:43:3655",
      "address": "2434 Götzendorf, Margaretnerstraße 4"
    },
    {
      "bsts_id": "674",
      "name": "Götzis",
      "lat": 47.336511,
      "lon": 9.636832,
      "eva_nr": "8100120",
      "ifopt_id": "at:48:1029",
      "address": "6840 Götzis,"
    },
    {
      "bsts_id": "820",
      "name": "Hadersdorf am Kamp",
      "lat": 48.446592,
      "lon": 15.714351,
      "eva_nr": "8100264",
      "ifopt_id": "at:43:3660",
      "address": "3492 Hadersdorf, Am Bahnhof 1"
    },
    {
      "bsts_id": "1419",
      "name": "Hagenau im Innkreis",
      "lat": 48.265301,
      "lon": 13.114735,
      "eva_nr": "8100914",
      "ifopt_id": "at:44:49100",
      "address": "4963 St. Peter am Hart,"
    },
    {
      "bsts_id": "768",
      "name": "Haiding",
      "lat": 48.209364,
      "lon": 13.975499,
      "eva_nr": "8100265",
      "ifopt_id": "at:44:42940",
      "address": "4631 Krenglbach-Haiding, Bahnhofplatz 7"
    },
    {
      "bsts_id": "2019",
      "name": "Haiming",
      "lat": 47.25259,
      "lon": 10.889412,
      "eva_nr": "8100956",
      "ifopt_id": "at:47:1203",
      "address": "6425 Haiming, Bahnweg Str.Nr. 6013/km 42,4"
    },
    {
      "bsts_id": "775",
      "name": "Hainburg a.d.Donau Kulturfabrik",
      "lat": 48.144979,
      "lon": 16.932709,
      "eva_nr": "8100958",
      "ifopt_id": "at:43:3681",
      "address": "2410 Hainburg,"
    },
    {
      "bsts_id": "777",
      "name": "Hainburg a.d.Donau Personenbf",
      "lat": 48.148883,
      "lon": 16.939819,
      "eva_nr": "8100266",
      "ifopt_id": "at:43:3677",
      "address": "2410 Hainburg,"
    },
    {
      "bsts_id": "778",
      "name": "Hainburg a.d.Donau Ungartor",
      "lat": 48.148313,
      "lon": 16.948067,
      "eva_nr": "8100959",
      "ifopt_id": "at:43:3686",
      "address": "2410 Hainburg,"
    },
    {
      "bsts_id": "852",
      "name": "Hainfeld",
      "lat": 48.039536,
      "lon": 15.76767,
      "eva_nr": "8100957",
      "ifopt_id": "at:43:7403",
      "address": "3170 Hainfeld, Bahnstraße -"
    },
    {
      "bsts_id": "780",
      "name": "Halbenrain",
      "lat": 46.723671,
      "lon": 15.94882,
      "eva_nr": "8100916",
      "ifopt_id": "at:46:1757",
      "address": "8492 Halbenrain, Halbenrain 68"
    },
    {
      "bsts_id": "754",
      "name": "Hall in Tirol",
      "lat": 47.277207,
      "lon": 11.501571,
      "eva_nr": "8100105",
      "ifopt_id": "at:47:1184",
      "address": "6060 Hall/Tirol, Bahnhofstraße 14"
    },
    {
      "bsts_id": "4872531",
      "name": "Hall-Thaur",
      "lat": 47.277089,
      "lon": 11.47414,
      "eva_nr": "8102105",
      "ifopt_id": "at:47:294",
      "address": "6065 Thaur,"
    },
    {
      "bsts_id": "842",
      "name": "Hallein",
      "lat": 47.685078,
      "lon": 13.099131,
      "eva_nr": "8100040",
      "ifopt_id": "at:45:50494",
      "address": "5400 Hallein, Baron Löwensternstraße 4"
    },
    {
      "bsts_id": "1402934",
      "name": "Hallein Burgfried",
      "lat": 47.675772,
      "lon": 13.114681,
      "eva_nr": "8102049",
      "ifopt_id": "at:45:50500",
      "address": "5400  Hallein Burgfried, Schwarzbergweg 19"
    },
    {
      "bsts_id": "1596",
      "name": "Hallstatt",
      "lat": 47.568438,
      "lon": 13.662277,
      "eva_nr": "8100926",
      "ifopt_id": "at:44:46631",
      "address": "4831 Obertraun,"
    },
    {
      "bsts_id": "920",
      "name": "Hallwang-Elixhausen",
      "lat": 47.857814,
      "lon": 13.092017,
      "eva_nr": "8100929",
      "ifopt_id": "at:45:50254",
      "address": "5300 Hallwang/Elixhausen,"
    },
    {
      "bsts_id": "2298",
      "name": "Hard-Fussach",
      "lat": 47.479982,
      "lon": 9.688055,
      "eva_nr": "8100267",
      "ifopt_id": "at:48:1098",
      "address": "6973 Hard-Fussach,"
    },
    {
      "bsts_id": "4609072",
      "name": "Hart bei Graz",
      "lat": 47.042136,
      "lon": 15.507674,
      "eva_nr": "8102050",
      "ifopt_id": "at:46:977",
      "address": "8053 Graz,"
    },
    {
      "bsts_id": "1441",
      "name": "Hart im Innkreis",
      "lat": 48.316413,
      "lon": 13.415043,
      "eva_nr": "8100948",
      "ifopt_id": "at:44:48141",
      "address": "4974 Reichersberg, Hart 31"
    },
    {
      "bsts_id": "781",
      "name": "Hartberg",
      "lat": 47.281459,
      "lon": 15.984844,
      "eva_nr": "8100180",
      "ifopt_id": "at:46:2022",
      "address": "8230 Hartberg, St. Johanner Straße 6"
    },
    {
      "bsts_id": "286",
      "name": "Haselstauden",
      "lat": 47.433353,
      "lon": 9.74966,
      "eva_nr": "8100981",
      "ifopt_id": "at:48:1099",
      "address": "6850 Haselstauden,"
    },
    {
      "bsts_id": "774",
      "name": "Haslach",
      "lat": 48.554433,
      "lon": 14.030706,
      "eva_nr": "8100976",
      "ifopt_id": "at:44:45550",
      "address": "4170 Rohrbach-Berg, Keppling 8"
    },
    {
      "bsts_id": "850",
      "name": "Haslau an der Donau",
      "lat": 48.109651,
      "lon": 16.710779,
      "eva_nr": "8100982",
      "ifopt_id": "at:43:3706",
      "address": "2402 Haslau,"
    },
    {
      "bsts_id": "886",
      "name": "Hatlerdorf",
      "lat": 47.398093,
      "lon": 9.724902,
      "eva_nr": "8100921",
      "ifopt_id": "at:48:628",
      "address": "6850 Hatlerdorf,"
    },
    {
      "bsts_id": "2569",
      "name": "Hatting",
      "lat": 47.281217,
      "lon": 11.171183,
      "eva_nr": "8100986",
      "ifopt_id": "at:47:1196",
      "address": "6401 Hatting, Bahnstraße 20"
    },
    {
      "bsts_id": "2053",
      "name": "Hatzendorf",
      "lat": 46.979241,
      "lon": 16.003272,
      "eva_nr": "8100268",
      "ifopt_id": "at:46:1768",
      "address": "8361 Hatzendorf, Hatzendorf 27"
    },
    {
      "bsts_id": "784",
      "name": "Haus",
      "lat": 47.4169,
      "lon": 13.800217,
      "eva_nr": "8100136",
      "ifopt_id": "at:46:7189",
      "address": "8967 Haus/Ennstal, Höhenfeld 35"
    },
    {
      "bsts_id": "2144",
      "name": "Hausleiten",
      "lat": 48.39123,
      "lon": 16.108418,
      "eva_nr": "8100990",
      "ifopt_id": "at:43:3709",
      "address": "3464 Hausleiten, Bahnhofstraße 101"
    },
    {
      "bsts_id": "896",
      "name": "Hausruck",
      "lat": 48.129718,
      "lon": 13.571568,
      "eva_nr": "8100980",
      "ifopt_id": "at:44:48310",
      "address": "4906 Eberschwang, Hausruck 15"
    },
    {
      "bsts_id": "2041",
      "name": "Hautzendorf",
      "lat": 48.45116,
      "lon": 16.492846,
      "eva_nr": "8100984",
      "ifopt_id": "at:43:3712",
      "address": "2123 Hautzendorf, Bahnstraße"
    },
    {
      "bsts_id": "5517158",
      "name": "Heinfels",
      "lat": 46.745899,
      "lon": 12.444437,
      "eva_nr": "8105982",
      "ifopt_id": "at:47:3881",
      "address": "9920 Heinfels-Panzendorf,"
    },
    {
      "bsts_id": "140",
      "name": "Heiterwang-Plansee",
      "lat": 47.442305,
      "lon": 10.748246,
      "eva_nr": "8100550",
      "ifopt_id": "at:47:2248",
      "address": "6611 Heiterwang,"
    },
    {
      "bsts_id": "2448",
      "name": "Helmahof",
      "lat": 48.310447,
      "lon": 16.59764,
      "eva_nr": "8100928",
      "ifopt_id": "at:43:3292",
      "address": "2232 Strasshof, Bahnhofplatz 21"
    },
    {
      "bsts_id": "4609057",
      "name": "Hengsberg",
      "lat": 46.863551,
      "lon": 15.457744,
      "eva_nr": "8102051",
      "ifopt_id": "at:46:8499",
      "address": "8411 Hengsberg, Matzelsdorf 18a"
    },
    {
      "bsts_id": "856",
      "name": "Hennersdorf",
      "lat": 48.112407,
      "lon": 16.358379,
      "eva_nr": "8100925",
      "ifopt_id": "at:43:3723",
      "address": "2332 Hennersdorf, Bachgasse"
    },
    {
      "bsts_id": "799",
      "name": "Hermagor",
      "lat": 46.626478,
      "lon": 13.375416,
      "eva_nr": "8100270",
      "ifopt_id": "at:42:3907",
      "address": "9620 Hermagor, Gailtalstraße 5"
    },
    {
      "bsts_id": "858",
      "name": "Herzogenburg",
      "lat": 48.276583,
      "lon": 15.696167,
      "eva_nr": "8100272",
      "ifopt_id": "at:43:8003",
      "address": "3130 Herzogenburg, Bahnhofplatz 3"
    },
    {
      "bsts_id": "2253",
      "name": "Herzogenburg Stadt",
      "lat": 48.284528,
      "lon": 15.700442,
      "eva_nr": "8100996",
      "ifopt_id": "at:43:8004",
      "address": "3130 Herzogenburg, Dr.Karl Renner-Gasse 18"
    },
    {
      "bsts_id": "2103",
      "name": "Herzogenburg-Wielandsthal",
      "lat": 48.285001,
      "lon": 15.690704,
      "eva_nr": "8100997",
      "ifopt_id": "at:43:8005",
      "address": "3130 Herzogenburg, Schulgasse 4"
    },
    {
      "bsts_id": "2153",
      "name": "Herzograd",
      "lat": 48.161059,
      "lon": 14.502849,
      "eva_nr": "8100995",
      "ifopt_id": "at:43:8240",
      "address": "4300 Herzoggrad,"
    },
    {
      "bsts_id": "851",
      "name": "Hetzmannsdorf-Wullersdorf",
      "lat": 48.616631,
      "lon": 16.092067,
      "eva_nr": "8100936",
      "ifopt_id": "at:43:3733",
      "address": "2041 Hetzmansdorf/Wullersdorf, Grund 97"
    },
    {
      "bsts_id": "832",
      "name": "Hieflau",
      "lat": 47.607667,
      "lon": 14.737767,
      "eva_nr": "8100158",
      "ifopt_id": "at:46:6589",
      "address": "8920 Hieflau, Gesäuse 5"
    },
    {
      "bsts_id": "839",
      "name": "Hilm-Kematen",
      "lat": 48.022661,
      "lon": 14.761696,
      "eva_nr": "8100949",
      "ifopt_id": "at:43:7896",
      "address": "3331 Hilm/Kematen, Allhartsbergerstraße 1"
    },
    {
      "bsts_id": "835",
      "name": "Himberg",
      "lat": 48.081383,
      "lon": 16.445482,
      "eva_nr": "8100950",
      "ifopt_id": "at:43:3734",
      "address": "2325 Himberg, Bahnhofplatz 2"
    },
    {
      "bsts_id": "899",
      "name": "Hinterstoder",
      "lat": 47.774493,
      "lon": 14.178891,
      "eva_nr": "8100172",
      "ifopt_id": "at:44:43620",
      "address": "4572 Hinterstoder, St. Pankraz 65"
    },
    {
      "bsts_id": "2324",
      "name": "Hirschbach",
      "lat": 48.749565,
      "lon": 15.126259,
      "eva_nr": "8100953",
      "ifopt_id": "at:43:7167",
      "address": "3942 Hirschbach,"
    },
    {
      "bsts_id": "396",
      "name": "Hirtenberg",
      "lat": 47.928998,
      "lon": 16.176449,
      "eva_nr": "8100983",
      "ifopt_id": "at:43:3766",
      "address": "2552 Hirtenberg, Alte Gasse 39"
    },
    {
      "bsts_id": "793",
      "name": "Hochfilzen",
      "lat": 47.467343,
      "lon": 12.626299,
      "eva_nr": "8100052",
      "ifopt_id": "at:47:1153",
      "address": "6395 Hochfilzen, bahnhof 4"
    },
    {
      "bsts_id": "877",
      "name": "Hochzirl",
      "lat": 47.280872,
      "lon": 11.249452,
      "eva_nr": "8100111",
      "ifopt_id": "at:47:2225",
      "address": "6170 Hochzirl,"
    },
    {
      "bsts_id": "1543",
      "name": "Hohenau",
      "lat": 48.598285,
      "lon": 16.901275,
      "eva_nr": "8100130",
      "ifopt_id": "at:43:3778",
      "address": "2273 Hohenau,"
    },
    {
      "bsts_id": "419",
      "name": "Hohenbrugg a.d.Raab",
      "lat": 46.944206,
      "lon": 16.060673,
      "eva_nr": "8100945",
      "ifopt_id": "at:46:1767",
      "address": "8350 Hohenbrugg, Hohenbrugg 120"
    },
    {
      "bsts_id": "884",
      "name": "Hohenems",
      "lat": 47.364736,
      "lon": 9.681254,
      "eva_nr": "8100121",
      "ifopt_id": "at:48:1133",
      "address": "6845 Hohenems,"
    },
    {
      "bsts_id": "1617",
      "name": "Hollabrunn",
      "lat": 48.563023,
      "lon": 16.072659,
      "eva_nr": "8100274",
      "ifopt_id": "at:43:3780",
      "address": "2020 Hollabrunn, Bahnhofplatz 8"
    },
    {
      "bsts_id": "282",
      "name": "Hollenegg",
      "lat": 46.785961,
      "lon": 15.235581,
      "ifopt_id": "at:46:1287"
    },
    {
      "bsts_id": "883",
      "name": "Holzleithen",
      "lat": 48.1134,
      "lon": 13.60649,
      "eva_nr": "8100276",
      "ifopt_id": "at:44:48320",
      "address": "4901 Ottnang am Hausruck, Rieder Straße 244"
    },
    {
      "bsts_id": "890",
      "name": "Hopfgarten",
      "lat": 47.455687,
      "lon": 12.149199,
      "eva_nr": "8100059",
      "ifopt_id": "at:47:1168",
      "address": "6361 Hopfgarten, Bahnhofstraße 25"
    },
    {
      "bsts_id": "2433",
      "name": "Hopfgarten Berglift",
      "lat": 47.446757,
      "lon": 12.158813,
      "eva_nr": "8100939",
      "ifopt_id": "at:47:1167",
      "address": "6361 Hopfgarten im Brixental,"
    },
    {
      "bsts_id": "855",
      "name": "Horn",
      "lat": 48.666021,
      "lon": 15.672674,
      "eva_nr": "8100277",
      "ifopt_id": "at:43:3784",
      "address": "3580 Horn, Bahnstrasse 36"
    },
    {
      "bsts_id": "2013",
      "name": "Höbersdorf",
      "lat": 48.447962,
      "lon": 16.173084,
      "eva_nr": "8100962",
      "ifopt_id": "at:43:3794",
      "address": "2011 Höbersdorf, Höbersdorf 67"
    },
    {
      "bsts_id": "1118",
      "name": "Höflein a.d.Donau",
      "lat": 48.349943,
      "lon": 16.272227,
      "eva_nr": "8100961",
      "ifopt_id": "at:43:3800",
      "address": "3421 Höflein, Hauptstraße 120"
    },
    {
      "bsts_id": "1372",
      "name": "Hörersdorf",
      "lat": 48.619912,
      "lon": 16.516919,
      "eva_nr": "8100970",
      "ifopt_id": "at:43:3806",
      "address": "2132 Hörersdorf, Am Mühlberg"
    },
    {
      "bsts_id": "869",
      "name": "Hörsching",
      "lat": 48.245602,
      "lon": 14.186528,
      "eva_nr": "8100974",
      "ifopt_id": "at:44:41501",
      "address": "4063 Hörsching, Bahnhofstraße 7"
    },
    {
      "bsts_id": "829",
      "name": "Hötzelsdorf-Geras",
      "lat": 48.742408,
      "lon": 15.67078,
      "eva_nr": "8100273",
      "ifopt_id": "at:43:7161",
      "address": "3753 Hötzelsdorf, Hötzelsdorf 41"
    },
    {
      "bsts_id": "5701084",
      "name": "Hüttau",
      "lat": 47.414696,
      "lon": 13.30816,
      "eva_nr": "8100993",
      "ifopt_id": "at:45:52600",
      "address": "5511 Hüttau"
    },
    {
      "bsts_id": "1516",
      "name": "Iglmühle",
      "lat": 48.52058,
      "lon": 14.036457,
      "eva_nr": "8100999",
      "ifopt_id": "at:44:45680",
      "address": "4122 Arnreit,"
    },
    {
      "bsts_id": "942",
      "name": "Imst-Pitztal",
      "lat": 47.21922,
      "lon": 10.761956,
      "eva_nr": "8100062",
      "ifopt_id": "at:47:1206",
      "address": "6460  Imst Pitztal, Arzl 70"
    },
    {
      "bsts_id": "946",
      "name": "Imsterberg",
      "lat": 47.211192,
      "lon": 10.705749,
      "eva_nr": "8101000",
      "ifopt_id": "at:47:1209",
      "address": "6491 Imsterberg,"
    },
    {
      "bsts_id": "927",
      "name": "Innsbruck Hbf",
      "lat": 47.263571,
      "lon": 11.400561,
      "eva_nr": "8100108",
      "ifopt_id": "at:47:1187",
      "address": "6020 Innsbruck, Südtiroler Platz 7"
    },
    {
      "bsts_id": "937",
      "name": "Innsbruck Hötting",
      "lat": 47.261537,
      "lon": 11.373919,
      "eva_nr": "8100110",
      "ifopt_id": "at:47:2221",
      "address": "6020 Hötting, Fürstenweg 85"
    },
    {
      "bsts_id": "4872534",
      "name": "Innsbruck Messe",
      "lat": 47.273251,
      "lon": 11.407683,
      "eva_nr": "8105987",
      "ifopt_id": "at:47:211",
      "address": "6020 Innsbruck, Ing. Etzel-Straße Viaduktbogen 80-102"
    },
    {
      "bsts_id": "2512",
      "name": "Innsbruck Westbf",
      "lat": 47.255798,
      "lon": 11.391836,
      "eva_nr": "8100109",
      "ifopt_id": "at:47:1189",
      "address": "6020 Innsbruck, Egger-Lienz-Straße 1"
    },
    {
      "bsts_id": "2568",
      "name": "Inzing",
      "lat": 47.27772,
      "lon": 11.199187,
      "eva_nr": "8101007",
      "ifopt_id": "at:47:1195",
      "address": "6401 Inzing, Bahnstraße 25"
    },
    {
      "bsts_id": "947",
      "name": "Irnfritz",
      "lat": 48.748276,
      "lon": 15.539594,
      "eva_nr": "8100399",
      "ifopt_id": "at:43:7162",
      "address": "3754 Irnfritz, Bahnhofplatz 1"
    },
    {
      "bsts_id": "1604",
      "name": "Irschen",
      "lat": 46.740518,
      "lon": 13.013537,
      "eva_nr": "8101005",
      "ifopt_id": "at:42:3869",
      "address": "9781 Irschen,"
    },
    {
      "bsts_id": "302",
      "name": "Jedenspeigen",
      "lat": 48.494839,
      "lon": 16.878156,
      "eva_nr": "8101012",
      "ifopt_id": "at:43:3830",
      "address": "2264 Jedenspeigen, Bahnstraße 2"
    },
    {
      "bsts_id": "956",
      "name": "Jedlersdorf",
      "lat": 48.273955,
      "lon": 16.396013,
      "eva_nr": "8101013",
      "ifopt_id": "at:49:591",
      "address": "1210 Wien,"
    },
    {
      "bsts_id": "961",
      "name": "Jenbach",
      "lat": 47.388594,
      "lon": 11.778089,
      "eva_nr": "8100102",
      "ifopt_id": "at:47:61321",
      "address": "6200 Jenbach, Bahnhofstraße 4"
    },
    {
      "bsts_id": "968",
      "name": "Jennersdorf",
      "lat": 46.935245,
      "lon": 16.139967,
      "eva_nr": "8101010",
      "ifopt_id": "at:41:7075",
      "address": "8380 Jennersdorf, Bahnhofsring 15"
    },
    {
      "bsts_id": "558",
      "name": "Johnsbach im Nationalpark",
      "lat": 47.582416,
      "lon": 14.595846,
      "eva_nr": "8101014",
      "ifopt_id": "at:46:7452",
      "address": "8912 Johnsbach,"
    },
    {
      "bsts_id": "1569",
      "name": "Jois",
      "lat": 47.956672,
      "lon": 16.791118,
      "eva_nr": "8100280",
      "ifopt_id": "at:41:3831",
      "address": "7093 Jois, Bahnstraße"
    },
    {
      "bsts_id": "971",
      "name": "Judenburg",
      "lat": 47.174796,
      "lon": 14.6629,
      "eva_nr": "8100073",
      "ifopt_id": "at:46:7469",
      "address": "8750 Judenburg, Bahnhofstraße 10"
    },
    {
      "bsts_id": "748",
      "name": "Judendorf-Straßengel",
      "lat": 47.118339,
      "lon": 15.343856,
      "eva_nr": "8101011",
      "ifopt_id": "at:46:1758",
      "address": "8111 Judendorf/Strassengel,"
    },
    {
      "bsts_id": "699",
      "name": "Kaindorf a.d.Sulm",
      "lat": 46.802063,
      "lon": 15.542467,
      "eva_nr": "8101918",
      "ifopt_id": "at:46:3918",
      "address": "8432 Kaindorf an der Sulm,"
    },
    {
      "bsts_id": "995",
      "name": "Kainisch",
      "lat": 47.569973,
      "lon": 13.842853,
      "eva_nr": "8101025",
      "ifopt_id": "at:46:7513",
      "address": "8984 Kainisch, Kainisch 42"
    },
    {
      "bsts_id": "997",
      "name": "Kalsdorf",
      "lat": 46.964434,
      "lon": 15.470309,
      "eva_nr": "8101019",
      "ifopt_id": "at:46:1794",
      "address": "8401 Kalsdorf, Bahnhofstraße 7"
    },
    {
      "bsts_id": "992",
      "name": "Kalwang",
      "lat": 47.423579,
      "lon": 14.744296,
      "eva_nr": "8100126",
      "ifopt_id": "at:46:7432",
      "address": "8775 Kalwang, Bahnhofstraße 1"
    },
    {
      "bsts_id": "1818",
      "name": "Kamegg",
      "lat": 48.61023,
      "lon": 15.657452,
      "eva_nr": "8101024",
      "ifopt_id": "at:43:3851",
      "address": "3571 Kamegg,"
    },
    {
      "bsts_id": "1064",
      "name": "Kammer-Schörfling",
      "lat": 47.948551,
      "lon": 13.596212,
      "eva_nr": "8100283",
      "ifopt_id": "at:44:47301",
      "address": "4861 Schörfling am Attersee,"
    },
    {
      "bsts_id": "1981",
      "name": "Kammern",
      "lat": 47.390041,
      "lon": 14.904297,
      "eva_nr": "8101061",
      "ifopt_id": "at:46:7431",
      "address": "8773 Kammern, B 113"
    },
    {
      "bsts_id": "571",
      "name": "Kapellerfeld",
      "lat": 48.316912,
      "lon": 16.495116,
      "eva_nr": "8101020",
      "ifopt_id": "at:43:3852",
      "address": "2201 Kapellerfeld, Sonnenweggasse"
    },
    {
      "bsts_id": "990",
      "name": "Kapfenberg",
      "lat": 47.445197,
      "lon": 15.29266,
      "eva_nr": "8100031",
      "ifopt_id": "at:46:6092",
      "address": "8605 Kapfenberg, Bahnhofstraße 5"
    },
    {
      "bsts_id": "1343",
      "name": "Kapfenberg Fachhochschule",
      "lat": 47.454619,
      "lon": 15.328994,
      "eva_nr": "8101032",
      "ifopt_id": "at:46:7420",
      "address": "8605 Kapfenberg, Krottendorf 18"
    },
    {
      "bsts_id": "2246",
      "name": "Kappel am Krappfeld",
      "lat": 46.837419,
      "lon": 14.475819,
      "eva_nr": "8101075",
      "ifopt_id": "at:42:3628",
      "address": "9321 Kappel am Krappfeld,"
    },
    {
      "bsts_id": "2442",
      "name": "Kastenreith",
      "lat": 47.850739,
      "lon": 14.637897,
      "eva_nr": "8101079",
      "ifopt_id": "at:44:46940",
      "address": "3335 Weyer, Küpfern 34"
    },
    {
      "bsts_id": "1281",
      "name": "Katsdorf",
      "lat": 48.312175,
      "lon": 14.490468,
      "eva_nr": "8101029",
      "ifopt_id": "at:44:44470",
      "address": "4223 Katsdorf,"
    },
    {
      "bsts_id": "1500",
      "name": "Katzelsdorf",
      "lat": 47.79274,
      "lon": 16.266381,
      "eva_nr": "8100284",
      "ifopt_id": "at:43:3867",
      "address": "2276 Katzelsdorf, Leithakoloniestraße 100"
    },
    {
      "bsts_id": "1024",
      "name": "Kefermarkt",
      "lat": 48.437023,
      "lon": 14.538377,
      "eva_nr": "8100536",
      "ifopt_id": "at:44:45450",
      "address": "4292 Kefermarkt, Am Bahnhof 11"
    },
    {
      "bsts_id": "2330",
      "name": "Kematen in Tirol",
      "lat": 47.261152,
      "lon": 11.276787,
      "eva_nr": "8101038",
      "ifopt_id": "at:47:1192",
      "address": "6175 Kematen/Tirol, Bahnhofstraße 43"
    },
    {
      "bsts_id": "1015",
      "name": "Kematen-Piberbach",
      "lat": 48.11315,
      "lon": 14.202947,
      "eva_nr": "8101036",
      "ifopt_id": "at:44:41770",
      "address": "4531 Kematen/Krems, Bahnhofstraße 20"
    },
    {
      "bsts_id": "1529",
      "name": "Kimpling",
      "lat": 48.26662,
      "lon": 13.67028,
      "eva_nr": "8101045",
      "ifopt_id": "at:44:47795",
      "address": "4720 Kallham,"
    },
    {
      "bsts_id": "1032",
      "name": "Kindberg",
      "lat": 47.501338,
      "lon": 15.448172,
      "eva_nr": "8100030",
      "ifopt_id": "at:46:6313",
      "address": "8650 Kindberg,"
    },
    {
      "bsts_id": "1007",
      "name": "Kirchberg am Wagram",
      "lat": 48.427682,
      "lon": 15.894346,
      "eva_nr": "8100288",
      "ifopt_id": "at:43:3880",
      "address": "3470 Kirchberg/Wagram, Bahnstraße 45"
    },
    {
      "bsts_id": "1046",
      "name": "Kirchberg in Tirol",
      "lat": 47.448699,
      "lon": 12.308989,
      "eva_nr": "8100057",
      "ifopt_id": "at:47:1163",
      "address": "6365 Kirchberg/Tirol, Bahnhofstraße 13"
    },
    {
      "bsts_id": "1044",
      "name": "Kirchbichl",
      "lat": 47.51919,
      "lon": 12.093466,
      "eva_nr": "8100290",
      "ifopt_id": "at:47:2181",
      "address": "6322 Kirchbichl, Bahnhofstraße 15"
    },
    {
      "bsts_id": "1039",
      "name": "Kirchdorf a.d.Krems",
      "lat": 47.906654,
      "lon": 14.116499,
      "eva_nr": "8100170",
      "ifopt_id": "at:44:43500",
      "address": "4560 Kirchdorf/Krems, Bahnhofstraße 43"
    },
    {
      "bsts_id": "1090",
      "name": "Kirchstetten",
      "lat": 48.190075,
      "lon": 15.820977,
      "eva_nr": "8101048",
      "ifopt_id": "at:43:3885",
      "address": "3062 Kirchstetten,"
    },
    {
      "bsts_id": "1103",
      "name": "Kittsee",
      "lat": 48.081606,
      "lon": 17.071386,
      "eva_nr": "8100373",
      "ifopt_id": "at:41:5972",
      "address": "2421 Kittsee, Untere Hauptstraße 99"
    },
    {
      "bsts_id": "1120",
      "name": "Kitzbühel",
      "lat": 47.454207,
      "lon": 12.390616,
      "eva_nr": "8100055",
      "ifopt_id": "at:47:1160",
      "address": "6370 Kitzbühel, Bahnhofplatz 2"
    },
    {
      "bsts_id": "1121",
      "name": "Kitzbühel Hahnenkamm",
      "lat": 47.442965,
      "lon": 12.390608,
      "eva_nr": "8101044",
      "ifopt_id": "at:47:1161",
      "address": "6370 Kitzbühel, Josef-Herold-Straße 23"
    },
    {
      "bsts_id": "1336",
      "name": "Klagenfurt Annabichl",
      "lat": 46.650003,
      "lon": 14.315157,
      "eva_nr": "8101090",
      "ifopt_id": "at:42:3640",
      "address": "9020 Klagenfurt,"
    },
    {
      "bsts_id": "685",
      "name": "Klagenfurt Ebenthal",
      "lat": 46.616585,
      "lon": 14.333395,
      "eva_nr": "8101091",
      "ifopt_id": "at:42:3819",
      "address": "9020 Klagenfurt, Flatschacherstraße 7"
    },
    {
      "bsts_id": "1098",
      "name": "Klagenfurt Hbf",
      "lat": 46.615962,
      "lon": 14.313589,
      "eva_nr": "8100085",
      "ifopt_id": "at:42:3642",
      "address": "9020 Klagenfurt, Walther von der Vogelweideplatz 1"
    },
    {
      "bsts_id": "1099",
      "name": "Klagenfurt Lend",
      "lat": 46.621405,
      "lon": 14.284342,
      "eva_nr": "8101093",
      "ifopt_id": "at:42:3645",
      "address": "9020 Klagenfurt, Egger-Lienz-Weg 1"
    },
    {
      "bsts_id": "1337",
      "name": "Klagenfurt Ostbf",
      "lat": 46.621317,
      "lon": 14.322031,
      "eva_nr": "8101094",
      "ifopt_id": "at:42:3641",
      "address": "9020 Klagenfurt, Rudolfsbahngürtel 37"
    },
    {
      "bsts_id": "5091980",
      "name": "Klagenfurt Süd",
      "lat": 46.610828,
      "lon": 14.302347,
      "eva_nr": "8103842",
      "ifopt_id": "at:42:3842",
      "address": "9020 Klagenfurt,"
    },
    {
      "bsts_id": "5091977",
      "name": "Klagenfurt West",
      "lat": 46.622932,
      "lon": 14.266702,
      "eva_nr": "8103644",
      "ifopt_id": "at:42:3643",
      "address": "9020 Klagenfurt, Walter-Dermuth- Strasse 21"
    },
    {
      "bsts_id": "1093",
      "name": "Klamm-Schottwien",
      "lat": 47.665274,
      "lon": 15.873207,
      "eva_nr": "8101050",
      "ifopt_id": "at:43:8766",
      "address": "2641 Klamm/Schottwien, Bahnhofweg 10"
    },
    {
      "bsts_id": "1111",
      "name": "Klaus",
      "lat": 47.833008,
      "lon": 14.15538,
      "eva_nr": "8100171",
      "ifopt_id": "at:44:43589",
      "address": "4564 Klaus an der Pyhrnbahn, Klaus 77"
    },
    {
      "bsts_id": "1860",
      "name": "Klaus in Vorarlberg",
      "lat": 47.308071,
      "lon": 9.624863,
      "eva_nr": "8101100",
      "ifopt_id": "at:48:1184",
      "address": "6833 Klaus,"
    },
    {
      "bsts_id": "1016",
      "name": "Kleblach-Lind",
      "lat": 46.770655,
      "lon": 13.340988,
      "eva_nr": "8101055",
      "ifopt_id": "at:42:3864",
      "address": "9753  Kleblach Lind, Kleblach 24"
    },
    {
      "bsts_id": "2548",
      "name": "Kledering",
      "lat": 48.133609,
      "lon": 16.438886,
      "eva_nr": "8101051",
      "ifopt_id": "at:43:3895",
      "address": "2320 Kledering, Bahnhofplatz"
    },
    {
      "bsts_id": "1031",
      "name": "Kleinreifling",
      "lat": 47.824054,
      "lon": 14.642458,
      "eva_nr": "8100156",
      "ifopt_id": "at:44:46950",
      "address": "4464 Kleinreifling, Kleinreifling 106"
    },
    {
      "bsts_id": "1520",
      "name": "Kleinzell",
      "lat": 48.458212,
      "lon": 14.032048,
      "eva_nr": "8101106",
      "ifopt_id": "at:44:45765",
      "address": "4120 Niederwaldkirchen,"
    },
    {
      "bsts_id": "1020",
      "name": "Klosterneuburg-Kierling",
      "lat": 48.309893,
      "lon": 16.326418,
      "eva_nr": "8100460",
      "ifopt_id": "at:43:3952",
      "address": "3400 Klosterneuburg/Kierling, Niedermarkt 4"
    },
    {
      "bsts_id": "1019",
      "name": "Klosterneuburg-Weidling",
      "lat": 48.297621,
      "lon": 16.334386,
      "eva_nr": "8101101",
      "ifopt_id": "at:43:3953",
      "address": "3400 Klosterneuburg/Weidling, Wiener Straße 23"
    },
    {
      "bsts_id": "1008",
      "name": "Knittelfeld",
      "lat": 47.215393,
      "lon": 14.837299,
      "eva_nr": "8100072",
      "ifopt_id": "at:46:7466",
      "address": "8720 Knittelfeld, Bahnhofplatz 8"
    },
    {
      "bsts_id": "1050",
      "name": "Kolbnitz",
      "lat": 46.878203,
      "lon": 13.321708,
      "eva_nr": "8100091",
      "ifopt_id": "at:42:2125",
      "address": "9815 Kolbnitz, Mitterberg 21"
    },
    {
      "bsts_id": "1066",
      "name": "Korneuburg",
      "lat": 48.342964,
      "lon": 16.328957,
      "eva_nr": "8100293",
      "ifopt_id": "at:43:3963",
      "address": "2100 Korneuburg, Bahnhofplatz 1"
    },
    {
      "bsts_id": "2086",
      "name": "Kothmühle",
      "lat": 47.886814,
      "lon": 13.940737,
      "eva_nr": "8101071",
      "ifopt_id": "at:44:46322",
      "address": "4644 Kothmühle,"
    },
    {
      "bsts_id": "254",
      "name": "Kottingbrunn",
      "lat": 47.950009,
      "lon": 16.227049,
      "eva_nr": "8101033",
      "ifopt_id": "at:43:3989",
      "address": "2542 Kottingbrunn, Wiener Neustädterstraße"
    },
    {
      "bsts_id": "374",
      "name": "Kottingneusiedl",
      "lat": 48.703473,
      "lon": 16.464348,
      "eva_nr": "8101065",
      "ifopt_id": "at:43:3991",
      "address": "2136 Kottingneusiedl,"
    },
    {
      "bsts_id": "939",
      "name": "Kranebitten",
      "lat": 47.269623,
      "lon": 11.328689,
      "eva_nr": "8100551",
      "ifopt_id": "at:47:2223",
      "address": "6020 Innsbruck/Kranebitten,"
    },
    {
      "bsts_id": "1078",
      "name": "Kraubath",
      "lat": 47.305984,
      "lon": 14.945848,
      "eva_nr": "8101076",
      "ifopt_id": "at:46:7463",
      "address": "8714 Kraubath, Bahnhofstraße 23"
    },
    {
      "bsts_id": "2257",
      "name": "Kreisbach",
      "lat": 48.100979,
      "lon": 15.608055,
      "eva_nr": "8101077",
      "ifopt_id": "at:43:7378",
      "address": "3150 Kreisbach, Kreisbacher Straße"
    },
    {
      "bsts_id": "1076",
      "name": "Krems a.d.Donau",
      "lat": 48.409131,
      "lon": 15.604858,
      "eva_nr": "8100295",
      "ifopt_id": "at:43:3993",
      "address": "3500 Krems an der Donau, Bahnhofplatz 1"
    },
    {
      "bsts_id": "1089",
      "name": "Krems in der Steiermark",
      "lat": 47.032867,
      "lon": 15.175598,
      "ifopt_id": "at:46:1284"
    },
    {
      "bsts_id": "1084",
      "name": "Kremsmünster",
      "lat": 48.053078,
      "lon": 14.140032,
      "eva_nr": "8100169",
      "ifopt_id": "at:44:42390",
      "address": "4550 Kremsmünster, Bahnhofstraße 50"
    },
    {
      "bsts_id": "5",
      "name": "Krenstetten-Biberbach",
      "lat": 48.055063,
      "lon": 14.699597,
      "eva_nr": "8101085",
      "ifopt_id": "at:43:7237",
      "address": "3353 Biberbach,"
    },
    {
      "bsts_id": "1014",
      "name": "Krieglach",
      "lat": 47.547145,
      "lon": 15.560306,
      "eva_nr": "8101080",
      "ifopt_id": "at:46:6539",
      "address": "8670 Krieglach,"
    },
    {
      "bsts_id": "1113",
      "name": "Kritzendorf",
      "lat": 48.336097,
      "lon": 16.299237,
      "eva_nr": "8101084",
      "ifopt_id": "at:43:3995",
      "address": "3420 Kritzendorf, Bahnhofplatz 8"
    },
    {
      "bsts_id": "1087",
      "name": "Krottendorf-Ligist",
      "lat": 47.00995,
      "lon": 15.214017,
      "ifopt_id": "at:46:1282"
    },
    {
      "bsts_id": "1060",
      "name": "Krummnußbaum",
      "lat": 48.207964,
      "lon": 15.158777,
      "eva_nr": "8101083",
      "ifopt_id": "at:43:7228",
      "address": "3375 Krummnußbaum,"
    },
    {
      "bsts_id": "1082",
      "name": "Krumpendorf",
      "lat": 46.626572,
      "lon": 14.22182,
      "eva_nr": "8100079",
      "ifopt_id": "at:42:3646",
      "address": "9201 Krumpendorf, Hauptstraße 103"
    },
    {
      "bsts_id": "2287",
      "name": "Kröllendorf",
      "lat": 48.043173,
      "lon": 14.788897,
      "eva_nr": "8101081",
      "ifopt_id": "at:43:7895",
      "address": "3331 Allhartsberg, Dorf -"
    },
    {
      "bsts_id": "844",
      "name": "Kuchl",
      "lat": 47.624932,
      "lon": 13.142147,
      "eva_nr": "8100546",
      "ifopt_id": "at:45:50580",
      "address": "5431 Kuchl, Markt 68"
    },
    {
      "bsts_id": "1402938",
      "name": "Kuchl Garnei",
      "lat": 47.651648,
      "lon": 13.128329,
      "eva_nr": "8102047",
      "ifopt_id": "at:45:50578",
      "address": "5431  Kuchl Garnei, Garnei 160"
    },
    {
      "bsts_id": "984",
      "name": "Kufstein",
      "lat": 47.583174,
      "lon": 12.165925,
      "eva_nr": "8100001",
      "ifopt_id": "at:47:2184",
      "address": "6330 Kufstein, Südtirolerplatz 3"
    },
    {
      "bsts_id": "1531",
      "name": "Kumpfmühl",
      "lat": 48.269334,
      "lon": 13.620356,
      "eva_nr": "8101063",
      "ifopt_id": "at:44:48170",
      "address": "4751 Dorf an der Pram,"
    },
    {
      "bsts_id": "1029",
      "name": "Köflach",
      "lat": 47.061714,
      "lon": 15.082577,
      "ifopt_id": "at:46:498"
    },
    {
      "bsts_id": "2033",
      "name": "Köppling",
      "lat": 47.003145,
      "lon": 15.243535,
      "ifopt_id": "at:46:1281"
    },
    {
      "bsts_id": "1576",
      "name": "Köstendorf Weng",
      "lat": 47.936266,
      "lon": 13.174999,
      "eva_nr": "8100594",
      "ifopt_id": "at:45:50210",
      "address": "5203 Weng,"
    },
    {
      "bsts_id": "5738657",
      "name": "Köttmannsdorf Lambichl",
      "lat": 46.579608,
      "lon": 14.282898,
      "eva_nr": "8103840",
      "ifopt_id": "at:42:3847",
      "address": "9073 Lambichl,"
    },
    {
      "bsts_id": "1742",
      "name": "Küb",
      "lat": 47.681384,
      "lon": 15.876502,
      "eva_nr": "8101097",
      "ifopt_id": "at:43:8764",
      "address": "2671 Küb, Bahngasse"
    },
    {
      "bsts_id": "5012219",
      "name": "Kühnsdorf Klopeiner See",
      "lat": 46.624847,
      "lon": 14.620844,
      "eva_nr": "8100336",
      "ifopt_id": "at:42:3831",
      "address": "9125 Kühnsdorf, Nord 120"
    },
    {
      "bsts_id": "1416",
      "name": "Küpfern Haltestelle",
      "lat": 47.858658,
      "lon": 14.610409,
      "eva_nr": "8101099",
      "ifopt_id": "at:44:46930",
      "address": "3335 Küpfern,"
    },
    {
      "bsts_id": "1131",
      "name": "Laa a.d.Thaya",
      "lat": 48.722854,
      "lon": 16.402871,
      "eva_nr": "8101180",
      "ifopt_id": "at:43:4015",
      "address": "2136 Laa/Thaya, Am Ostbahnhof 2"
    },
    {
      "bsts_id": "1879",
      "name": "Lacken",
      "lat": 48.38605,
      "lon": 14.091381,
      "eva_nr": "8101110",
      "ifopt_id": "at:44:44050",
      "address": "4101 Feldkirchen,"
    },
    {
      "bsts_id": "1566016",
      "name": "Ladendorf",
      "lat": 48.536304,
      "lon": 16.510328,
      "eva_nr": "8101111",
      "ifopt_id": "at:43:4025",
      "address": "2126 Ladendorf, Am Bahnhof 1"
    },
    {
      "bsts_id": "1201",
      "name": "Lahrndorf",
      "lat": 47.99489,
      "lon": 14.374526,
      "eva_nr": "8101118",
      "ifopt_id": "at:44:43934",
      "address": "4451 Garsten, Lahrndorfer Straße 164"
    },
    {
      "bsts_id": "1127",
      "name": "Lambach",
      "lat": 48.093803,
      "lon": 13.888537,
      "eva_nr": "8100015",
      "ifopt_id": "at:44:42790",
      "address": "4650 Lambach, Bahnhofstraße 67"
    },
    {
      "bsts_id": "1129",
      "name": "Lambach Markt",
      "lat": 48.094352,
      "lon": 13.870039,
      "eva_nr": "8101223",
      "ifopt_id": "at:44:42791",
      "address": "4650 Lambach,"
    },
    {
      "bsts_id": "1180",
      "name": "Landeck-Zams",
      "lat": 47.148447,
      "lon": 10.578384,
      "eva_nr": "8100063",
      "ifopt_id": "at:47:1212",
      "address": "6500 Landeck, Bahnhofstraße 20"
    },
    {
      "bsts_id": "1149",
      "name": "Langen am Arlberg",
      "lat": 47.131713,
      "lon": 10.121633,
      "eva_nr": "8100065",
      "ifopt_id": "at:48:1226",
      "address": "6754 Langen/Arlberg, Langen am Arlberg 18"
    },
    {
      "bsts_id": "111",
      "name": "Langenlebarn",
      "lat": 48.327629,
      "lon": 16.121767,
      "eva_nr": "8101159",
      "ifopt_id": "at:43:4029",
      "address": "3425 Langenlebarn, Bahnhofstraße 60"
    },
    {
      "bsts_id": "1234",
      "name": "Langenlois",
      "lat": 48.476919,
      "lon": 15.686288,
      "eva_nr": "8100299",
      "ifopt_id": "at:43:4036",
      "address": "3550 Langenlois, Johann Kargl-Straße 4"
    },
    {
      "bsts_id": "1489",
      "name": "Langenwang",
      "lat": 47.567859,
      "lon": 15.61379,
      "eva_nr": "8101190",
      "ifopt_id": "at:46:7424",
      "address": "8665 Langenwang, Bahnstraße 18"
    },
    {
      "bsts_id": "959",
      "name": "Langenzersdorf",
      "lat": 48.306361,
      "lon": 16.356108,
      "eva_nr": "8101191",
      "ifopt_id": "at:43:4045",
      "address": "2103 Langenzersdorf, Bahnhofplatz 3"
    },
    {
      "bsts_id": "1252",
      "name": "Lannach",
      "lat": 46.940123,
      "lon": 15.335069,
      "ifopt_id": "at:46:889"
    },
    {
      "bsts_id": "2578",
      "name": "Lanzendorf-Rannersdorf",
      "lat": 48.113198,
      "lon": 16.447617,
      "eva_nr": "8101173",
      "ifopt_id": "at:43:4054",
      "address": "2324 Lanzendorf, Untere Hauptstraße 22"
    },
    {
      "bsts_id": "1112",
      "name": "Lanzenkirchen",
      "lat": 47.75059,
      "lon": 16.242456,
      "eva_nr": "8101104",
      "ifopt_id": "at:43:7057",
      "address": "2821  Klein Wolkersdorf, Bahnweg 2"
    },
    {
      "bsts_id": "1025",
      "name": "Lasberg-St.Oswald",
      "lat": 48.460868,
      "lon": 14.521709,
      "eva_nr": "8101178",
      "ifopt_id": "at:44:49759",
      "address": "4291 Lasberg,"
    },
    {
      "bsts_id": "1142",
      "name": "Laßnitzhöhe",
      "lat": 47.078774,
      "lon": 15.58842,
      "eva_nr": "8100194",
      "ifopt_id": "at:46:1761",
      "address": "8301 Lassnitzhöhe,"
    },
    {
      "bsts_id": "1145",
      "name": "Laßnitzthal",
      "lat": 47.088335,
      "lon": 15.657168,
      "eva_nr": "8101161",
      "ifopt_id": "at:46:2244",
      "address": "8302 Laßnitzthal,"
    },
    {
      "bsts_id": "600",
      "name": "Lauffen",
      "lat": 47.674899,
      "lon": 13.616662,
      "eva_nr": "8101120",
      "ifopt_id": "at:44:46534",
      "address": "4821 Lauffen,"
    },
    {
      "bsts_id": "1133",
      "name": "Launsdorf-Hochosterwitz",
      "lat": 46.768667,
      "lon": 14.455564,
      "eva_nr": "8100077",
      "ifopt_id": "at:42:3631",
      "address": "9314 Launsdorf, Hauptstraße 15"
    },
    {
      "bsts_id": "1274",
      "name": "Lauterach",
      "lat": 47.477579,
      "lon": 9.724458,
      "eva_nr": "8100302",
      "ifopt_id": "at:48:1252",
      "address": "6923 Lauterach,"
    },
    {
      "bsts_id": "1289",
      "name": "Lauterach Unterfeld",
      "lat": 47.48079,
      "lon": 9.714732,
      "eva_nr": "8105481",
      "ifopt_id": "at:48:2383",
      "address": "6923 Lauterach, Forellenweg 2"
    },
    {
      "bsts_id": "1290",
      "name": "Laxenburg-Biedermannsdorf",
      "lat": 48.077622,
      "lon": 16.356588,
      "eva_nr": "8101122",
      "ifopt_id": "at:43:4067",
      "address": "2361 Laxenburg/Biedermannsdorf, Aspangbahnhof 1"
    },
    {
      "bsts_id": "2458",
      "name": "Lebring",
      "lat": 46.855766,
      "lon": 15.53211,
      "eva_nr": "8101137",
      "ifopt_id": "at:46:1749",
      "address": "8403 Lebring,"
    },
    {
      "bsts_id": "5270173",
      "name": "Ledenitzen",
      "lat": 46.562841,
      "lon": 13.965844,
      "eva_nr": "8102149",
      "ifopt_id": "at:42:7140",
      "address": "9581 Ledenitzen,"
    },
    {
      "bsts_id": "92",
      "name": "Lehen-Altensam",
      "lat": 48.035161,
      "lon": 13.701242,
      "eva_nr": "8101119",
      "ifopt_id": "at:44:47230",
      "address": "4800 Pühret,"
    },
    {
      "bsts_id": "1193",
      "name": "Leibnitz",
      "lat": 46.78073,
      "lon": 15.546774,
      "eva_nr": "8100035",
      "ifopt_id": "at:46:1827",
      "address": "8430 Leibnitz, Bahnhofgürtel 7"
    },
    {
      "bsts_id": "878",
      "name": "Leithen",
      "lat": 47.290806,
      "lon": 11.221912,
      "eva_nr": "8100554",
      "ifopt_id": "at:47:2226",
      "address": "6103 Leithen,"
    },
    {
      "bsts_id": "1175",
      "name": "Lend",
      "lat": 47.297284,
      "lon": 13.055564,
      "eva_nr": "8100045",
      "ifopt_id": "at:45:52191",
      "address": "5651 Lend, Bahnhofstrasse 81"
    },
    {
      "bsts_id": "2088",
      "name": "Lendorf",
      "lat": 46.827625,
      "lon": 13.418041,
      "eva_nr": "8101126",
      "ifopt_id": "at:42:3861",
      "address": "9811 Lendorf,"
    },
    {
      "bsts_id": "497",
      "name": "Lengau",
      "lat": 48.007993,
      "lon": 13.220339,
      "eva_nr": "8102009",
      "ifopt_id": "at:44:40179",
      "address": "5211 Lengau,"
    },
    {
      "bsts_id": "1248",
      "name": "Lenzing",
      "lat": 47.9831,
      "lon": 13.613528,
      "eva_nr": "8101141",
      "ifopt_id": "at:44:47270",
      "address": "4860 Lenzing, Bahnhofstraße 22"
    },
    {
      "bsts_id": "1250",
      "name": "Lenzing Ort",
      "lat": 47.971743,
      "lon": 13.606722,
      "eva_nr": "8101135",
      "ifopt_id": "at:44:47271",
      "address": "4860 Lenzing,"
    },
    {
      "bsts_id": "1183",
      "name": "Leoben Hbf",
      "lat": 47.38648,
      "lon": 15.089928,
      "eva_nr": "8100070",
      "ifopt_id": "at:46:6344",
      "address": "8700 Leoben, Bahnhofplatz 4"
    },
    {
      "bsts_id": "5402655",
      "name": "Leoben Lerchenfeld",
      "lat": 47.385451,
      "lon": 15.115313,
      "eva_nr": "8106002",
      "ifopt_id": "at:46:30454",
      "address": "8700 Leoben,"
    },
    {
      "bsts_id": "1073",
      "name": "Leobendorf-Burg Kreuzenstein",
      "lat": 48.364675,
      "lon": 16.301833,
      "eva_nr": "8101124",
      "ifopt_id": "at:43:4083",
      "address": "2100 Leobendorf, Bahngasse 17"
    },
    {
      "bsts_id": "1161",
      "name": "Leobersdorf",
      "lat": 47.937403,
      "lon": 16.231072,
      "eva_nr": "8101163",
      "ifopt_id": "at:43:4084",
      "address": "2544 Leobersdorf, Bahnhofplatz 3"
    },
    {
      "bsts_id": "1920",
      "name": "Leogang",
      "lat": 47.443202,
      "lon": 12.740362,
      "eva_nr": "8100051",
      "ifopt_id": "at:45:54276",
      "address": "5771 Leogang, Sonnberg 44"
    },
    {
      "bsts_id": "1919",
      "name": "Leogang-Steinberge",
      "lat": 47.445407,
      "lon": 12.768923,
      "eva_nr": "8101146",
      "ifopt_id": "at:45:54252",
      "address": "5771 Leogang, Rosental 38"
    },
    {
      "bsts_id": "1296",
      "name": "Leonding",
      "lat": 48.274019,
      "lon": 14.254087,
      "eva_nr": "8101165",
      "ifopt_id": "at:44:41072",
      "address": "4060 Leonding,"
    },
    {
      "bsts_id": "1266",
      "name": "Leopoldau",
      "lat": 48.277325,
      "lon": 16.448371,
      "eva_nr": "8101170",
      "ifopt_id": "at:49:769",
      "address": "1210 Wien,"
    },
    {
      "bsts_id": "1196",
      "name": "Lermoos",
      "lat": 47.405168,
      "lon": 10.878836,
      "eva_nr": "8100552",
      "ifopt_id": "at:47:2245",
      "address": "6631 Lermoos,"
    },
    {
      "bsts_id": "1968",
      "name": "Lichendorf",
      "lat": 46.713926,
      "lon": 15.698071,
      "eva_nr": "8101148",
      "ifopt_id": "at:46:1751",
      "address": "8473 Lichendorf,"
    },
    {
      "bsts_id": "2649",
      "name": "Liebenfels Haltestelle",
      "lat": 46.736093,
      "lon": 14.292679,
      "eva_nr": "8100305",
      "ifopt_id": "at:42:3802",
      "address": "9556 Liebenfels,"
    },
    {
      "bsts_id": "1166",
      "name": "Lieboch",
      "lat": 46.968744,
      "lon": 15.345632,
      "ifopt_id": "at:46:1278"
    },
    {
      "bsts_id": "1169",
      "name": "Lieboch-Schadendorf",
      "lat": 46.979362,
      "lon": 15.318095,
      "ifopt_id": "at:46:1279"
    },
    {
      "bsts_id": "1217",
      "name": "Lienz",
      "lat": 46.828595,
      "lon": 12.771234,
      "eva_nr": "8100141",
      "ifopt_id": "at:47:3873",
      "address": "9900 Lienz, Bahnhofplatz 1"
    },